stop_id,stop_code,stop_name,stop_lat,stop_lon
2580BLA0027,bladjpj,"Blackburn (Blackburn), Bus Station H (Stand H)",53.74718,-2.48005
2580BMT0003,bladgjp,"Belmont (Blackburn), Black Dog Inn (adj)",53.63858,-2.49405
2580BMT0008,bladgmg,"Belmont (Blackburn), Black Dog Inn (opp)",53.63768,-2.49343
2580BMT0015,bladgpg,"Belmont (Blackburn), Turning Circle (by)",53.64490,-2.49745
2580CPT0003,bladtma,"Chapeltown (Blackburn), High Street (by)",53.63596,-2.40266
2580CPT0004,bladtmd,"Chapeltown (Blackburn), High Street (by)",53.63638,-2.40124
2580CPT0007,bladtmp,"Chapeltown (Blackburn), Turton Tower (by)",53.63174,-2.40637
2580CPT0008,bladtmt,"Chapeltown (Blackburn), Turton Tower (by)",53.63137,-2.40636
2580DAW0028,bladwpj,"Darwen, Darwen Cemetery (by)",53.67662,-2.45653
2580DAW0029,bladwpm,"Darwen, Darwen Cemetery (by)",53.67691,-2.45691
2580DAW0104,blagdjg,"Darwen, Town Centre (Stand 1)",53.69534,-2.46671
2580EAR0002,blagdpa,"Earcroft, Darwen Vale School (opp)",53.71609,-2.48353
2580EDG0001,blagdpj,"Edgworth, The White Horse (adj)",53.64708,-2.39266
2580EDG0007,blagdtg,"Edgworth, Church  (o/s)",53.64592,-2.39314
2580EDG0008,blagdtj,"Edgworth, Church  (o/s)",53.64551,-2.39355
2580EDG0009,blagdtm,"Edgworth, Crowthorn School (opp)",53.65967,-2.38612
2580EDG0010,blagdtp,"Edgworth, Greenthorne Close (opp)",53.64946,-2.39286
2580EDG0011,blagdtw,"Edgworth, Harbour Lane  (by)",53.64320,-2.39540
2580EDG0012,blagdwa,"Edgworth, Harbour Lane  (by)",53.64347,-2.39453
2580EDG0013,blagdwd,"Edgworth, Hob Lane (opp)",53.65356,-2.40125
2580EDG0015,blagdwj,"Edgworth, Moorside Road (by)",53.65998,-2.40540
2580EDG0017,blagdwp,"Edgworth, Crowthorn School (opp)",53.66021,-2.38571
2580EDG0020,blagjag,"Edgworth, Wayside (by)",53.65109,-2.39858
2580EDG0021,blagjaj,"Edgworth, White Horse (by)",53.64801,-2.39285
2580EWD0002,blagjda,"Ewood, Boundary (by)",53.71773,-2.48403
2580HOD0011,blagpap,"Hoddlesden, Ranken Arms (opp)",53.69579,-2.43190
2580HOD0012,blagpat,"Hoddlesden, Ranken Arms (o/s)",53.69571,-2.43180
2580INT0001,blagpjm,"Intack, Accrington Road (by)",53.74809,-2.44231
2580INT0002,blagpjp,"Intack, Accrington Road (by)",53.74801,-2.44196
2580RLE0006,blajatw,"Roe Lee, Roe Lee Park Primary School (opp)",53.77184,-2.47254
2580RLE0012,blajawp,"Roe Lee, Roe Lee Park Primary School (o/s)",53.77174,-2.47256
2580TBT0001,blajgjm,"Turton Bottoms, Jumbles Nursery (by)",53.63782,-2.39854
2580TBT0002,blajgjp,"Turton Bottoms, Jumbles Nursery (by)",53.63793,-2.39880
2580TBT0003,blajgjt,"Turton Bottoms, Spread Eagle (by)",53.63824,-2.39750
2580TBT0004,blajgjw,"Turton Bottoms, Wellington Mews (by)",53.63840,-2.39737
2580TBT0005,blajgma,"Turton Bottoms, Sandy Bank Rd (adj)",53.64064,-2.39620
2580TBT0006,blajgmd,"Turton Bottoms, Sandy Bank Rd (by)",53.64053,-2.39647
2580TCK0003,blajgdp,"Tockholes, Victoria Hotel (opp)",53.70151,-2.51504
2580TCK0007,blajgjd,"Tockholes, Victoria Hotel (o/s)",53.70155,-2.51473
2580TUR0001,blajgmg,"Chapeltown (Blackburn), Horrobin Lane (by)",53.62918,-2.40829
2580TUR0002,blajgmj,"Chapeltown (Blackburn), TURTON Horrobin Lane (by)",53.62938,-2.40849
2580TUR0003,blajgmp,"Chapeltown (Blackburn), King William  (by)",53.62634,-2.40994
2580TUR0004,blajgmt,"Chapeltown (Blackburn), King William  (opp)",53.62638,-2.40981
2580WLP0001,blajmwg,"Wilpshire, Bulls Head (o/s)",53.77909,-2.47767
2580WLP0003,blajmwm,"Wilpshire, Bulls Head (opp)",53.77865,-2.47757
2590B0079,blpadgmw,"Town Centre (Blackpool), Talbot Road (Stop T4)",53.82007,-3.05167
0600CO5014,chegdgm,"Holmes Chapel, Shopping Precinct (o/s)",53.20098,-2.35704
0600CO5015,chegdgp,"Holmes Chapel, Shopping Precinct (opp)",53.20093,-2.35728
0600MA0001,chegptg,"Broken Cross (nr Macclesfield), Fallibroome Road (cnr)",53.25954,-2.16170
0600MA0050,chegtjm,"Macclesfield, Tesco (opp)",53.25828,-2.12812
0600MA0166,chemjat,"Knutsford, Sugar Pit Lane (cnr)",53.31068,-2.38578
0600MA0170,cheatmp,"Mere (Cheshire), Mereheath Lane (cnr)",53.32722,-2.39677
0600MA0171,chemjdg,"Knutsford, Sugar Pit Lane (opp)",53.31035,-2.38515
0600MA0202,cheatpj,"Pickmere, Red Lion PH (SW-bound)",53.28971,-2.46087
0600MA0203,cheatpm,"Pickmere, Red Lion PH (NE-bound)",53.28981,-2.46105
0600MA0213,cheatpw,"Little Bollington, Stamford Arms PH (nr)",53.37500,-2.41167
0600MA0214,cheatwa,"Little Bollington, Stamford Arms PH (o/s)",53.37444,-2.40982
0600MA0219,cheatwd,"Mere (Cheshire), Mereside Farm (opp)",53.33597,-2.39942
0600MA0231,cheatwm,"Mobberley (Cheshire), Station Road (opp)",53.32878,-2.33692
0600MA0250,cheawaj,"Mobberley (Cheshire), Bucklow Avenue (nr)",53.31402,-2.33011
0600MA0251,cheawam,"Mobberley (Cheshire), Bucklow Avenue (opp)",53.31427,-2.33031
0600MA0252,cheawap,"Mobberley (Cheshire), Victory Hall (opp)",53.31383,-2.31703
0600MA0253,chempdp,"Mobberley (Cheshire), Victory Hall (nr)",53.31398,-2.31701
0600MA0274,cheawat,"Alderley Edge, Nat West Bank (S-bound)",53.30040,-2.23618
0600MA0275,cheawaw,"Alderley Edge, Nat West Bank (nr)",53.30030,-2.23643
0600MA0303,chemtag,"Henbury (Cheshire), Blacksmith's Arms PH (opp)",53.25953,-2.18248
0600MA0304,chemtaj,"Henbury (Cheshire), Blacksmith's Arms PH (o/s)",53.25954,-2.18396
0600MA0310,cheawgj,"Monks Heath, Tiger Lily (o/s)",53.26478,-2.23462
0600MA0322,cheawgw,"Adlington (Cheshire), Railway Station (o/s)",53.31995,-2.13494
0600MA0323,cheawja,"Adlington (Cheshire), Railway Station (opp)",53.32000,-2.13518
0600MA0378,cheawmw,"Newtown (New Mills), Swan Hotel (nr)",53.35790,-2.01154
0600MA0379,cheawpa,"Newtown (New Mills), Swan Hotel (opp)",53.35804,-2.01181
0600MA0394,cheawpg,"Disley, Ram's Head Hotel (o/s)",53.35860,-2.04029
0600MA0395,cheawpj,"Disley, Ram's Head Hotel (opp)",53.35874,-2.04048
0600MA0398,chemwjg,"Disley, Lyme Park (o/s)",53.35770,-2.05391
0600MA0399,chemwjm,"Disley, Lyme Park (opp)",53.35793,-2.05382
0600MA0400,chemwjp,"Disley, Park Road (opp)",53.35992,-2.05561
0600MA0401,chemwjt,"Disley, Park Road (nr)",53.36041,-2.05740
0600MA0419,chemwmw,"Bollington Cross, St Oswald's Church (opp)",53.29149,-2.12000
0600MA0419A,chepmtd,"Bollington Cross, St Oswald's Church (o/s)",53.29179,-2.11954
0600MA0429,chegadj,"Bollington, Waggon & Horses (nr)",53.29365,-2.11003
0600MA0430,chegadm,"Bollington, Waggon & Horses (adj)",53.29426,-2.11032
0600MA0439,chepadg,"Bollington, Turners Arms PH (nr)",53.29869,-2.09234
0600MA0443,chepadp,"Bollington, Beeston Mount (cnr)",53.30057,-2.08951
0600MA0445,chegadt,"Pott Shrigley, Saint Christopher's Church (opp)",53.30952,-2.08363
0600MA0446,chegadw,"Pott Shrigley, Saint Christopher's Church (nr)",53.30938,-2.08373
0600MA0450,chegaga,"Wood Lanes, Wood Lanes Church (o/s)",53.33235,-2.09705
0600MA0451,chegagd,"Wood Lanes, Wood Lanes Church (opp)",53.33248,-2.09693
0600MA0461,chepajp,"Higher Poynton, Shrigley Road North (cnr)",53.34428,-2.08811
0600MA0462,chepajt,"Higher Poynton, Shrigley Road North (opp)",53.34412,-2.08814
0600MA0465,chepamd,"Higher Poynton, Carleton Road (cnr)",53.35074,-2.08664
0600MA0465A,chepwpd,"Higher Poynton, Carleton Road (opp)",53.35061,-2.08680
0600MA0477,chegagp,"Poynton (Cheshire), St George's Church (adj)",53.34963,-2.12200
0600MA0478,chegagt,"Poynton (Cheshire), St George's Church (opp)",53.34855,-2.12243
0600MA0493,chegajd,"Hockley (Poynton), Post Office (o/s)",53.34779,-2.10655
0600MA0494,chegajg,"Hockley (Poynton), Post Office (opp)",53.34766,-2.10730
0600MA0497,chepawg,"Poynton (Cheshire), Clumber Road (cnr)",53.34812,-2.11542
0600MA0498,chepawj,"Poynton (Cheshire), Clumber Road (opp)",53.34827,-2.11543
0600MA0499,chegajm,"Poynton (Cheshire), St George's Church (nr)",53.34900,-2.12107
0600MA0500,chepawm,"Poynton (Cheshire), St George's Church (o/s)",53.34920,-2.12288
0600MA0509,chegajp,"Poynton (Cheshire), Railway Station (adj)",53.34999,-2.13578
0600MA0510,chegajt,"Poynton (Cheshire), Railway Station (nr)",53.35016,-2.13603
0600MA0521,chepdja,"Handforth, Ollerton Road (NE-bound)",53.35307,-2.21174
0600MA0522,chepdjd,"Handforth, Ollerton Road (SW-bound)",53.35287,-2.21179
0600MA0526,chegamd,"Handforth, Spath Lane (nr)",53.35319,-2.21623
0600MA0527,chegamg,"Handforth, Spath Lane (opp)",53.35315,-2.21651
0600MA0530,chegamt,"Handforth, Clinic (o/s)",53.34801,-2.21505
0600MA0531,chegamw,"Handforth, Clinic (opp)",53.34779,-2.21532
0600MA0532,chegapa,"Handforth, The Green (cnr)",53.34568,-2.21082
0600MA0533,chegapd,"Handforth, The Green (opp)",53.34521,-2.21058
0600MA0546,chepdpg,"Wilmslow, Benson Walk (opp)",53.34021,-2.21380
0600MA0547,chepdpj,"Wilmslow, Benson Walk (cnr)",53.34019,-2.21353
0600MA0554,chegapm,"Styal, Altrincham Road (cnr)",53.34885,-2.24249
0600MA0555,chegapt,"Styal, Altrincham Road (opp)",53.34887,-2.24219
0600MA0580,chepgda,"Lacey Green (Wilmslow), Lacey Green (cnr)",53.33813,-2.22727
0600MA0581,chepgdg,"Lacey Green (Wilmslow), Lacey Green (nr)",53.33815,-2.22688
0600MA0585,chegatj,"Wilmslow, Railway Station (o/s)",53.32655,-2.22691
0600MA0587,chegatp,"Wilmslow, Bank Square (Stand A)",53.32683,-2.23094
0600MA0588,chegatw,"Wilmslow, Bank Square (Stand B)",53.32697,-2.23064
0600MA0621,chegawd,"Alderley Edge, Brook Lane Corner (SW-bound)",53.31081,-2.25461
0600MA0622,chegawg,"Alderley Edge, Brook Lane Corner (NE-bound)",53.31084,-2.25485
0600MA17435,chetgap,"Little Bollington, Roundabout (W-bound)",53.36903,-2.39051
0600MA17437,chetgtp,"Little Bollington, Roundabout (E-bound)",53.36919,-2.39080
0600MA17439,chetgtj,"Handforth Dean, Shopping Centre (o/s)",53.34942,-2.20381
0600MA19020,chetwdt,"Woodend (Cheshire), Woodend Barn (nr)",53.36979,-2.03326
0600MA19021,chetwgd,"Woodend (Cheshire), Woodend Barn (opp)",53.36996,-2.03453
0600MA19022,chetwdj,"Woodend (Cheshire), Woodend Farm (opp)",53.37113,-2.03678
0600MA19023,chetwgm,"Woodend (Cheshire), Woodend Farm (o/s)",53.37119,-2.03741
0600MA19067,chewjtd,"Handforth Dean, Frontline House (opp)",53.35051,-2.20895
0600MA5302,chewdwt,"Poynton (Cheshire), High School (o/s)",53.34399,-2.11231
0600MA6004,chepjwp,"Macclesfield, General Hospital (E-bound)",53.26340,-2.14121
0600MA6008,chegdmg,"Broken Cross (nr Macclesfield), Shops (o/s)",53.25972,-2.16108
0600MA6020,chepwjm,"Knutsford, Bus Station (Stand 1)",53.30266,-2.37516
0600MA6050,chegdwm,"Styal, Quarry Bank Mill (nr)",53.34505,-2.24807
0600MA6059,chegjdp,"Chorley (nr Alderley Edge), Tanyard Farm (o/s)",53.29782,-2.25718
0600MA6060,chegjdt,"Chorley (nr Alderley Edge), Tanyard Farm (opp)",53.29772,-2.25694
0600MA6072,chegjmt,"Great Warford, Noonsun Farm (opp)",53.30099,-2.29692
0600MA6073,chegjmw,"Great Warford, Warford Park (o/s)",53.30404,-2.29838
0600MA6074,chegjpa,"Great Warford, Warford Park (opp)",53.30409,-2.29819
0600MA6124,chegpap,"Macclesfield, General Hospital (o/s)",53.26283,-2.14139
0600MA6142,cheptjm,"Tytherington (Macclesfield), Sandwich Drive (opp)",53.27636,-2.13597
0600MA6143,cheptjp,"Tytherington (Macclesfield), Sandwich Drive (cnr)",53.27603,-2.13570
0600MA6154,chepwgw,"Macclesfield, Bus Station (Bay 1)",53.25835,-2.12502
0600MA6156,chegpja,"Mobberley (Cheshire), Station Road (cnr)",53.32875,-2.33663
0610VR036,chwajtg,"Lostock Gralam, Slow & Easy PH (opp)",53.27002,-2.46722
0610VR038,chwajtj,"Lostock Gralam, Griffiths Road (opp)",53.26947,-2.47003
0610VR191,chwpdjt,"Northwich, Interchange (Stand A)",53.26081,-2.51235
1090BSTN01,dbyptmad,"Derby, Bus Station (Bay 1)",52.92176,-1.47212
100000012246,dbsgdmgm,"Gamesley, Hargate Hill (opp)",53.43925,-1.98837
100000016463,dbsgdmwt,"Hadfield, Hawthorn Bank (Adj)",53.45842,-1.97776
100000018693,dbsgmgjt,"Glossop, Glossopdale College (Stop 2)",53.44913,-1.94869
100000008344,dbsdpjgw,"Hadfield, Burnside (adj)",53.45788,-1.97622
100000008345,dbsdpjma,"Simmondley, Zion Church (Adj)",53.44396,-1.96762
100000008346,dbsdpjmd,"Padfield, Platt Street 105 (Opp)",53.46163,-1.95773
100000008351,dbsdpjmt,"Glossop, Talbot Road (W-bound)",53.44888,-1.94720
100000008356,dbsdpgpa,"Chisworth, Marple Road 91 (opp)",53.42635,-2.00532
100000008366,dbsdpgtj,"Hague Bar, Waterside Road (opp)",53.36837,-2.02205
100000008367,dbsdpgtm,"Hague Bar, Waterside Road (adj)",53.36832,-2.02211
100000021889,dbsgpawg,"Hadfield, The Chieftain (opp)",53.45728,-1.97695
100000022178,dbsgptjm,"Belper, Bus Garage (Bay 1)",53.02232,-1.48397
100000022238,dbsgptmp,"Padfield, Platt Street Bottom (W-bound)",53.46264,-1.96157
100052789,dbsjdamp,"Glossop, Library (Adj)",53.44664,-1.95027
100000018918,dbsgpajw,"Padfield, Peels Arms PH (opp)",53.46325,-1.95559
1000DADR1124,dbsjadat,"Ambergate, Hurt Arms (Adj)",53.06028,-1.48143
1000DADR3368,dbsagagp,"Ambergate, Hurt Arms (Opp)",53.05978,-1.48145
1000DANRP772,dbsgwdtm,"Ashford-in-the-Water, Ashford Arms (Opp)",53.22450,-1.70649
1000DBBRSA98,dbsjadmd,"Bakewell, Buxton Road (Stand A)",53.21342,-1.67654
1000DBMP2580,dbsgtdwm,"Buxton (Derbyshire), Market Place (Stop A)",53.25657,-1.91395
1000DBMP2585,dbsgtgag,"Buxton (Derbyshire), Market Place (Stop D)",53.25639,-1.91393
1000DBMSS363,dbsgmajd,"Bakewell, Matlock Street (Stand E)",53.21190,-1.67441
1000DCBR2811,dbsgjdtg,"Chapel en le Frith, Netherfield Road (adj)",53.32467,-1.90356
1000DCBR2971,dbsgjdtp,"Chinley, High Peak Offices (Adj)",53.33564,-1.92034
1000DCBR2972,dbsgjdtw,"Chapel en le Frith, Jolly Carter (Opp)",53.32354,-1.89877
1000DCBR3593,dbsajdtg,"Chinley, High Peak Offices (Opp)",53.33568,-1.92023
1000DBSR2132,dbsgjpap,"Buxton (Derbyshire), Railway Station (Adj)",53.26055,-1.91139
1000DBSR2133,dbsgjpat,"Buxton (Derbyshire), Railway Station (Opp)",53.26032,-1.91288
1000DBVGH890,dbsajawt,"Birch Vale, Grouse Hotel (adj)",53.37787,-1.96693
1000DBVH3656,dbsajdad,"Birch Vale, Hayfield Road (W-bound)",53.37664,-1.97206
1000DBVH3657,dbsajdag,"Birch Vale, Hayfield Road (E-bound)",53.37653,-1.97316
1000DBVH3658,dbsajdaj,"Birch Vale, The Vine (Opp)",53.37569,-1.97855
1000DBVH3659,dbsajdam,"Birch Vale, The Vine (Adj)",53.37563,-1.97943
1000DBVH5983,dbsajdap,"Birch Vale, Grouse Hotel (NE-bound)",53.37806,-1.96687
1000DBVN3655,dbsajdga,"Birch Vale, Birch Hall Close (Adj)",53.37885,-1.96354
1000DBVS5982,dbsgjtdg,"Birch Vale, Grouse Hotel (opp)",53.37862,-1.96581
1000DCTEH262,dbsgdtap,"Chapel en le Frith, Town End (opp)",53.32509,-1.90803
1000DCFH3512,dbsajmgp,"Chapel en le Frith, New Inn (Opp)",53.32254,-1.91907
1000DCFH3596,dbsajmgt,"Chapel en le Frith, Burrfields Road (Adj)",53.32806,-1.91181
1000DCFH3597,dbsajmgw,"Chapel en le Frith, Burrfields Road (Opp)",53.32809,-1.91173
1000DCGR3483,dbsgdwpw,"Charlesworth, Springmeadow (Opp)",53.43546,-1.98990
1000DCGR3484,dbsgdwta,"Charlesworth, Glossop Road (NE-bound)",53.43306,-1.99301
1000DCGR3719,dbsgdwtd,"Chunal, Grouse Inn (Adj)",53.41149,-1.95117
1000DCGR3720,dbsgdwtg,"Chunal, Grouse Inn (Opp)",53.41156,-1.95128
1000DCHH4540,dbsajpdm,"Chinley, Old Coach House (Opp)",53.35782,-1.92787
1000DCHH4541,dbsajpdp,"Chinley, Old Coach House (Adj)",53.35782,-1.92769
1000DCHR2984,dbsajpgj,"Chapel en le Frith, Town End (Adj)",53.32525,-1.90733
1000DCHR4538,dbsdpgda,"Chinley, Green Acres Farm (Adj)",53.35236,-1.92674
1000DCHR4539,dbsdpgdg,"Chinley, Green Acres Farm (opp)",53.35237,-1.92666
1000DCLL3799,dbsgjajw,"Charlesworth, Mote Hall Farm (Opp)",53.43725,-1.99948
1000DCLL3800,dbsgjama,"Charlesworth, Bankwood Mill (Opp)",53.43920,-2.00077
1000DCLL3801,dbsgjamd,"Charlesworth, Mote Hall Farm (Adj)",53.43719,-1.99958
1000DCLL3802,dbsgjamg,"Charlesworth, Long Lane (NW-bound)",53.43356,-1.99588
1000DCLL3803,dbsgjamj,"Charlesworth, Besthill (Adj)",53.44002,-2.00585
1000DCLL4368,dbsgjamp,"Charlesworth, Long Lane (SE-bound)",53.43365,-1.99585
1000DCLL4369,dbsgjamt,"Charlesworth, Bankwood Mill (Adj)",53.43912,-2.00052
1000DCLL4370,dbsgjamw,"Charlesworth, Besthill (Opp)",53.44004,-2.00597
1000DDBL4247,dbsgdtgt,"Brookfield (Glossop), Cottage Lane (Adj)",53.45143,-1.98082
1000DDBP4244,dbsgdtjd,"Brookfield (Glossop), Melandra Road (Adj)",53.45427,-1.98437
1000DDBS4246,dbsamajg,"Brookfield (Glossop), Cottage Lane (Opp)",53.45185,-1.98118
1000DDDL3171,dbsgdwdt,"Darley Dale, Grouse Inn (Adj)",53.16707,-1.59962
1000DDDL3172,dbsamapa,"Darley Dale, Grouse Inn (Opp)",53.16751,-1.60069
1000DDDR2138,dbsamapt,"Dinting, Railway Station (Opp)",53.44995,-1.96930
1000DDDR3778,dbsamapw,"Dinting, Spire Hollin (adj)",53.44913,-1.95700
1000DDDR3779,dbsamata,"Dinting, Spire Hollin (Opp)",53.44921,-1.95703
1000DDDR3780,dbsamatd,"Dinting, Vicarage (Opp)",53.44820,-1.96664
1000DDDR3781,dbsamatg,"Dinting, Vicarage (Adj)",53.44796,-1.96569
1000DDDR3782,dbsamatj,"Dinting, Rail Junction (Opp)",53.44879,-1.96744
1000DDDV3411,dbsamdgd,"Dinting Vale, The Junction (adj)",53.44453,-1.96824
1000DDDV3413,dbsamdgj,"Dinting Vale, Primary School (Opp)",53.44602,-1.97089
1000DDDV3414,dbsamdgm,"Dinting Vale, Primary School (Adj)",53.44593,-1.97052
1000DDDV3415,dbsamdgp,"Dinting Vale, Glossop Road (adj)",53.44722,-1.97356
1000DDDV3835,dbsamdgt,"Dinting Vale, Glossop Road (Opp)",53.44712,-1.97301
1000DDDV4248,dbsgdadm,"Dinting Vale, Works (Adj)",53.44912,-1.97772
1000DDDV4249,dbsgdadp,"Dinting Vale, Works (Opp)",53.44962,-1.97801
1000DDHA2842,dbsgdajp,"Dove Holes, Sparrowpit Road (W-bound)",53.31190,-1.88576
1000DDHA2973,dbsgdajt,"Dove Holes, Barmoor Clough (adj)",53.31223,-1.88703
1000DDHB2810,dbsgdama,"Dove Holes, Barmoor Clough (opp)",53.31216,-1.88727
1000DDHH2139,dbsamdpg,"Dove Holes, Bus Depot (Adj)",53.29986,-1.88693
1000DDHS3412,dbsgdapj,"Dinting Vale, The Junction (Opp)",53.44450,-1.96596
1000DDHTG812,dbsgdata,"Dove Holes, Bus Depot (Opp)",53.29997,-1.88703
1000DCMR1156,dbsgjatd,"Chisworth, The Hunters (opp)",53.42655,-2.00947
1000DCMR3485,dbsajpmj,"Charlesworth, Lee Head (Opp)",53.42922,-1.99746
1000DCMR3486,dbsajpmp,"Charlesworth, Lee Head (Adj)",53.42982,-1.99639
1000DCMR3805,dbsajpmt,"Charlesworth, Glossop Road (SW-bound)",53.43289,-1.99305
1000DCMR4595,dbsajpmw,"Chisworth, The Hunters (Opp)",53.42654,-2.00821
1000DCMR4596,dbsajpta,"Chisworth, Marple Road 91 (adj)",53.42628,-2.00568
1000DCMR4598,dbsajptd,"Chisworth, Holehouse (Opp)",53.42639,-2.00210
1000DCMR4599,dbsajptg,"Chisworth, Holehouse (Adj)",53.42662,-2.00178
1000DCMRN879,dbsajpwg,"Chapel en le Frith, New Inn (Adj)",53.32195,-1.92039
1000DFVB1313,dbsgtgjg,"Furness Vale, Soldier Dick (Opp)",53.34909,-1.99099
1000DFVB2140,dbsgtgjm,"Furness Vale, Soldier Dick (Adj)",53.34963,-1.99137
1000DFVB3513,dbsgtgjp,"Newtown (New Mills), Redmoor House (Adj)",53.35734,-2.00101
1000DFVB3521,dbsgtgjt,"Furness Vale, Hollins View (Adj)",53.34568,-1.98641
1000DFVB3522,dbsgtgjw,"Furness Vale, Hollins View (Opp)",53.34569,-1.98628
1000DFVB3523,dbsgtgma,"Furness Vale, Primary School (Adj)",53.34779,-1.98817
1000DFVB3527,dbsgtgmd,"Newtown (New Mills), Redmoor House (Opp)",53.35732,-2.00071
1000DFVB3537,dbsgtgmg,"Furness Vale, St Johns Church (Opp)",53.35303,-1.99644
1000DFVB3539,dbsgtgmj,"Furness Vale, Crescent Drive (Opp)",53.34338,-1.98566
1000DFVB3540,dbsgtgmp,"Furness Vale, Dale Farm Dairy (Opp)",53.35136,-1.99458
1000DFVB3541,dbsgtgmt,"Furness Vale, Dale Farm Dairy (Adj)",53.35112,-1.99410
1000DFVB3542,dbsgawjw,"Furness Vale, St Johns Church (Adj)",53.35298,-1.99655
1000DFVB3547,dbsgawma,"Furness Vale, Crescent Drive (Adj)",53.34363,-1.98583
1000DGCL3416,dbsgawpj,"Gamesley, Cottage Lane South End (adj)",53.44615,-1.98040
1000DGGR3421,dbsgtgmw,"Gamesley, Samas Roneo (adj)",53.44445,-1.98421
1000DGGR3476,dbsgtgpa,"Gamesley, Samas Roneo (Opp)",53.44497,-1.98295
1000DGGR3477,dbsgtgpd,"Gamesley, Railway Bridge (adj)",53.44334,-1.98754
1000DGGR3478,dbsgtgpg,"Gamesley, Railway Bridge (opp)",53.44353,-1.98734
1000DGGR3479,dbsgtgpj,"Gamesley, St Margarets School (Adj)",53.44173,-1.98778
1000DGGR3480,dbsgtgpm,"Gamesley, St Margarets School (Opp)",53.44173,-1.98790
1000DGGR3804,dbsgtgpt,"Gamesley, Hargate Hill (Adj)",53.43888,-1.98835
1000DGGR4435,dbsgtgpw,"Charlesworth, Springmeadow (Adj)",53.43590,-1.98959
1000DGHS0900,dbsgtgwj,"Glossop, Henry Street (Stop A)",53.44387,-1.94900
1000DGHS1150,dbsgtgwm,"Glossop, Howard Arms (Adj)",53.44333,-1.94815
1000DGHS3403,dbsgtgwp,"Glossop, Arundel Street (opp)",53.44338,-1.95190
1000DGHS3404,dbsgtgwt,"Glossop, Arundel Street (adj)",53.44355,-1.95326
1000DGHS3405,dbsgtjad,"Glossop, St Marys Road (adj)",53.44346,-1.95535
1000DGHS3406,dbsgtjag,"Glossop, St Marys Road (Opp)",53.44354,-1.95576
1000DGHS3407,dbsgtjaj,"Glossop, Sunlaws Street (Adj)",53.44340,-1.95874
1000DGHS3408,dbsgtjam,"Glossop, Sunlaws Street (Opp)",53.44353,-1.95902
1000DGHS3409,dbsgajwa,"Glossop, Grapes Inn (Adj)",53.44361,-1.96057
1000DGHS3410,dbsgajwd,"Glossop, Grapes Inn (Opp)",53.44426,-1.96277
1000DGHS4258,dbsgajwg,"Glossop, Regency Close (Adj)",53.44405,-1.94334
1000DGHS4259,dbsgajwj,"Glossop, Regency Close (Opp)",53.44377,-1.94386
1000DGHSW936,dbsgajwm,"Glossop, Market Hall (Adj)",53.44327,-1.94983
1000DGMC3417,dbsgamga,"Gamesley, Edale Crescent (adj)",53.44831,-1.98326
1000DGMC3418,dbsgamgd,"Gamesley, Eyam Lane (adj)",53.45065,-1.98806
1000DGMC3419,dbsgamgj,"Gamesley, The Centurion (Adj)",53.44547,-1.99106
1000DGMC3420,dbsgamgm,"Gamesley, Youlgreave Crescent East (Adj)",53.44494,-1.98602
1000DGMC4584,dbsgtjap,"Gamesley, Hathersage Crescent (adj)",53.44945,-1.98483
1000DGMCR937,dbsgtjat,"Gamesley, Hollins Lane (adj)",53.44866,-1.98930
1000DGSR1146,dbsgtjmp,"Glossop, Royal Oak (Adj)",53.44447,-1.92814
1000DGSR4251,dbsgtjmt,"Glossop, Cowbrook Avenue (Opp)",53.44468,-1.93186
1000DGSR4252,dbsgtjmw,"Glossop, Cowbrook Avenue (Adj)",53.44468,-1.93271
1000DGSR4253,dbsgtjpa,"Glossop, Brook Meadow (adj)",53.44476,-1.93457
1000DGSR4254,dbsgtjpd,"Glossop, Brook Meadow (Opp)",53.44483,-1.93466
1000DGSR4256,dbsgampj,"Glossop, Commercial Inn (Adj)",53.44478,-1.93938
1000DGSR4257,dbsgampm,"Glossop, Commercial Inn (opp)",53.44471,-1.93930
1000DGSR4385,dbsgampt,"Glossop, Royal Oak (Opp)",53.44437,-1.92808
1000DGTR3777,dbsgamwa,"Glossop, Talbot Road (E-bound)",53.44893,-1.94685
1000DDSL4373,dbsgdgja,"Dinting Vale, Industrial Estate (opp)",53.45189,-1.97955
1000DDSL4374,dbsgdgjd,"Dinting Vale, Industrial Estate (adj)",53.45158,-1.97989
1000DDTR3936,dbsamgmw,"Glossop, Howard Park (opp)",53.44953,-1.95065
1000DDTR3937,dbsamgpa,"Glossop, Howard Park (adj)",53.45008,-1.95420
1000DHCS4283,dbsampwg,"Hadfield, St Andrews Church (Adj)",53.46080,-1.96809
1000DHCS4391,dbsampwt,"Hadfield, St Andrews Church (Opp)",53.46064,-1.96810
1000DHGL3787,dbsamtpa,"Hadfield, Oakfield Road (Adj)",53.45567,-1.97832
1000DHGL3788,dbsamtpd,"Hadfield, Oakfield Road (Opp)",53.45568,-1.97823
1000DHGLT899,dbsamtpt,"Hadfield, The Chieftain (adj)",53.45740,-1.97711
1000DHHB3789,dbsamtwm,"Hadfield, North Brook Road (Adj)",53.45982,-1.97895
1000DHHB3790,dbsamtwp,"Hadfield, North Brook Road (Opp)",53.45979,-1.97886
1000DHHB4157,dbsamtwt,"Hadfield, Hawthorn Bank (Opp)",53.45848,-1.97765
100051345,dbsjamdw,"Chisworth, County Boundary (Opp)",53.42566,-2.01975
100051347,dbsjamga,"Chisworth, County Boundary (Adj)",53.42559,-2.01970
100051349,dbsjamgd,"Chisworth, Sandy Lane (Opp)",53.42594,-2.01552
100051351,dbsjamgj,"Chisworth, Sandy Lane (Adj)",53.42587,-2.01549
100051711,dbsjamtp,"Matlock, Railway Station (Bay 1)",53.13836,-1.55819
100052659,dbsjdadg,"Glossop, Heath Road (SE-bound)",53.45213,-1.94969
100052661,dbsjdadj,"Glossop, Heath Road (NW-bound)",53.45205,-1.94992
100052663,dbsjdadm,"Glossop, North Road (S-bound)",53.45152,-1.95260
100052665,dbsjdadp,"Glossop, North Road (N-bound)",53.45147,-1.95281
1000DHHR4227,dbsapdmd,"Hadfield, Spinners Arms (Adj)",53.46084,-1.97113
1000DHHR4229,dbsapdmj,"Hadfield, Newlands Drive (Adj)",53.45963,-1.97339
1000DHNL1938,dbsapgpt,"Hadfield, Glossopdale College (Opp)",53.45744,-1.97338
1000DHNL3785,dbsapgpw,"Hadfield, The Sycamores (opp)",53.45344,-1.97772
1000DHNL3786,dbsapgta,"Hadfield, The Sycamores (adj)",53.45341,-1.97763
1000DHNL4230,dbsapgtd,"Hadfield, Thorncliffe Road (Opp)",53.45529,-1.97668
1000DHNL4280,dbsapgtg,"Hadfield, Thorncliffe Road (adj)",53.45544,-1.97657
1000DHNL4281,dbsapgtj,"Hadfield, Glossopdale College (Adj)",53.45757,-1.97293
1000DHNL4394,dbsapgtm,"Hadfield, Castle Street (Adj)",53.45887,-1.97070
1000DHNL4395,dbsapgtp,"Hadfield, Castle Street (Opp)",53.45951,-1.96966
1000DHNM3646,dbsapgwj,"Hayfield (Derbyshire), New Mills Road 38 (opp)",53.37862,-1.94855
1000DHNM3647,dbsapgwm,"Hayfield (Derbyshire), New Mills Road 38 (Adj)",53.37867,-1.94838
1000DHNM3648,dbsapgwp,"Hayfield (Derbyshire), The Birches (Adj)",53.37849,-1.95157
1000DHNM3649,dbsapgwt,"Hayfield (Derbyshire), The Birches (Opp)",53.37885,-1.95231
1000DHNM3650,dbsapjad,"Hayfield (Derbyshire), Quarry (Adj)",53.37992,-1.95692
1000DHBH3666,dbsgtjwt,"Hague Bar, White Gate House (opp)",53.36719,-2.01834
1000DHBH3667,dbsgtmad,"Hague Bar, White Gate House (adj)",53.36723,-2.01820
1000DHBH3668,dbsgtmag,"Hague Bar, Primary School (Opp)",53.36802,-2.02652
1000DHBH3669,dbsgtmaj,"Hague Bar, Primary School (Adj)",53.36808,-2.02691
1000DHBP4245,dbsgtmdg,"Brookfield (Glossop), Melandra Road (Opp)",53.45396,-1.98392
1000DHCL3795,dbsgapmp,"Hadfield, 89 Chapel Lane (Adj)",53.46202,-1.97127
1000DHCL3796,dbsgapmt,"Hadfield, 89 Chapel Lane (Opp)",53.46197,-1.97130
1000DHCL4791,dbsdpgja,"Hadfield, The Rises (opp)",53.46121,-1.97435
1000DHCL4792,dbsdpgjd,"Hadfield, The Rises (adj)",53.46137,-1.97484
1000DHCR4558,dbsgaptg,"Hayfield (Derbyshire), Highgate (Adj)",53.37479,-1.94251
1000DHCR4559,dbsgaptj,"Hayfield (Derbyshire), Highgate (Opp)",53.37474,-1.94262
1000DHWB4243,dbsaptgm,"Hadfield, Woolley Bridge (Opp)",53.45709,-1.98582
1000DHWBW940,dbsaptgp,"Hadfield, Woolley Bridge (adj)",53.45863,-1.98684
1000DHWG4276,dbsaptjg,"Hadfield, Goddard Lane (Adj)",53.46805,-1.97036
1000DHWG4393,dbsdwgmw,"Hadfield, Goddard Lane (Opp)",53.46819,-1.97037
1000DHWI4275,dbsdwgpj,"Hadfield, Waterside Business Park (adj)",53.46577,-1.97128
1000DHWI4282,dbsdwgpm,"Hadfield, Waterside Business Park (opp)",53.46511,-1.97140
1000DLHG3731,dbsdtwtd,"Little Hayfield, Glossop Road (N-bound)",53.38805,-1.94917
1000DLHG3733,dbsdtwtg,"Little Hayfield, Glossop Road (S-bound)",53.38789,-1.94911
1000DHSL3783,dbsdwtgp,"Hadfield, Newshaw Lane (adj)",53.45282,-1.97702
1000DHSL3784,dbsdwtgt,"Hadfield, Newshaw Lane (opp)",53.45292,-1.97722
1000DHSR2159,dbsapmja,"Hadfield, Railway Station (Opp)",53.46157,-1.96610
1000DHSR3322,dbsapmjd,"Hadfield, Albert Street (Adj)",53.46415,-1.96983
1000DHSR3797,dbsapmpt,"Hadfield, Masons Arms (Adj)",53.46298,-1.96809
1000DHSR3798,dbsdwtja,"Hadfield, Masons Arms (Opp)",53.46347,-1.96857
1000DHSR4274,dbsdwtjd,"Hadfield, Albert Street (Opp)",53.46400,-1.96964
1000DHSR4372,dbsdwtjg,"Hadfield, Railway Station (Adj)",53.46155,-1.96643
1000DHSRB893,dbsapmtw,"Hayfield (Derbyshire), Bus Station (Adj)",53.37926,-1.94735
1000DHTC4793,dbsapmwa,"Hadfield, Nursing Home (adj)",53.46135,-1.97801
1000DHTC4794,dbsapmwd,"Hadfield, Nursing Home (opp)",53.46138,-1.97816
1000DNAR3534,dbsdtgtg,"New Mills (Derbys), Newtown Railway Station (Adj)",53.36015,-2.00744
1000DNAR3536,dbsdtgtj,"Newtown (New Mills), Old Post Office (opp)",53.35912,-2.00926
1000DNARO263,dbsdptmt,"Newtown (New Mills), Old Post Office (adj)",53.35899,-2.00956
1000DNARS862,dbsdptmw,"New Mills (Derbys), Newtown Railway Station (Opp)",53.36019,-2.00771
1000DNBR3529,dbsdptpj,"Newtown (New Mills), Chalkers Snooker Club (Adj)",53.35851,-2.00722
1000DNBR3530,dbsdptpm,"Newtown (New Mills), Chalkers Snooker Club (Opp)",53.35854,-2.00749
1000DNRS1985,dbsawjga,"New Mills (Derbys), Newtown Station Forecourt (outside)",53.35963,-2.00858
1000DSBE2808,dbsdjwpa,"Sparrowpit, Wanted Inn (Opp)",53.32244,-1.86522
1000DSBE3362,dbsdjwpd,"Sparrowpit, Wanted Inn (Adj)",53.32244,-1.86536
1000DNMA3528,dbsawatw,"New Mills (Derbys), Jodrell Street (opp)",53.36247,-2.00242
1000DNMA3531,dbsawawa,"New Mills (Derbys), Jodrell Street (Adj)",53.36295,-2.00113
1000DNMA3532,dbsawawd,"New Mills (Derbys), Victoria Street (Adj)",53.36174,-2.00459
1000DNMA5981,dbsawawm,"New Mills (Derbys), Victoria Street (Opp)",53.36166,-2.00505
1000DNMBS214,dbsdpwtw,"New Mills (Derbys), Bus Station (Stop 1)",53.36541,-2.00205
1000DNMC3514,dbsdtada,"New Mills (Derbys), Marsh Lane (Adj)",53.36535,-1.99312
1000DNMC3613,dbsdtadg,"New Mills (Derbys), Queens Bridge (SW-bound)",53.36347,-1.99916
1000DNMC3616,dbsdtadj,"New Mills (Derbys), Jubilee Street (Adj)",53.36423,-1.99673
1000DNMC3617,dbsdtadm,"New Mills (Derbys), Jubilee Street (Opp)",53.36467,-1.99556
1000DNMC3631,dbsdtadp,"New Mills (Derbys), Queens Bridge (NE-bound)",53.36335,-1.99982
1000DNMH3641,dbsawgag,"New Mills (Derbys), Council Depot (Adj)",53.36562,-2.00833
1000DNMH3645,dbsawgaj,"New Mills (Derbys), Council Depot (Opp)",53.36547,-2.00803
1000DNMH3660,dbsawgam,"New Mills (Derbys), Ellerscroft (adj)",53.37267,-1.98553
1000DNMH3661,dbsawgap,"New Mills (Derbys), Ellerscroft (opp)",53.37263,-1.98571
1000DNMH3662,dbsawgat,"New Mills (Derbys), High Hill Road (Opp)",53.37064,-1.98782
1000DNMH3664,dbsawgaw,"New Mills (Derbys), White Gates (opp)",53.36545,-2.01356
1000DNMH3665,dbsawgda,"New Mills (Derbys), White Gates (Adj)",53.36554,-2.01353
1000DNML3638,dbsawgjw,"New Mills (Derbys), Marsh Lane (Opp)",53.36585,-1.99172
1000DNML3663,dbsawgma,"New Mills (Derbys), Cale Road (Adj)",53.36882,-1.98824
1000DNMLL660,dbsdtagj,"New Mills (Derbys), Cale Road (Opp)",53.36645,-1.98961
1000DMBS2456,dbsdtmja,"Matlock Bath, Fishpond Hotel (Adj)",53.11922,-1.56309
1000DMBS2457,dbsdtmjd,"Matlock Bath, Fishpond Hotel (Opp)",53.11913,-1.56275
1000DTMR3387,dbsdatjw,"Taddington, Chapel Lane (Opp)",53.23614,-1.78365
1000DTMR3388,dbsdatma,"Taddington, Chapel Lane (Adj)",53.23620,-1.78361
1000DTMR4354,dbsdjtaw,"Tintwistle, Arnfield Towers (Adj)",53.47011,-1.98202
1000DTMR4355,dbsdjtda,"Tintwistle, Arnfield Towers (Opp)",53.47004,-1.98188
1000DTMR4357,dbsdjtdg,"Tintwistle, Matthew Close (Adj)",53.47194,-1.97596
1000DTMR4358,dbsdjtdj,"Tintwistle, Matthew Close (Opp)",53.47187,-1.97581
1000DTMR4359,dbsdjtdm,"Tintwistle, New Road (Opp)",53.47216,-1.97326
1000DTNR4360,dbsdatpa,"Tintwistle, New Road (N-bound)",53.47195,-1.97206
1000DSPR3473,dbsdatag,"Simmondley, Police Station (Opp)",53.43987,-1.96938
1000DSSL3470,dbsdjdpa,"Simmondley, Zion Church (opp)",53.44394,-1.96753
1000DSSL3471,dbsdjdpd,"Simmondley, Bowland Road (Adj)",53.44215,-1.96869
1000DSSL3472,dbsdjdpg,"Simmondley, Bowland Road (Opp)",53.44205,-1.96892
1000DPDT2800,dbsdpdad,"Peak Dale, Old Station (Opp)",53.28835,-1.86498
1000DPDT2803,dbsdpdag,"Peak Dale, Old Station (Adj)",53.28829,-1.86495
1000DPFP2576,dbsdpdgd,"Peak Forest, Church (Adj)",53.31001,-1.83055
1000DPFP3336,dbsdpdgj,"Peak Forest, Church (Opp)",53.31004,-1.83041
1000DTWD4352,dbsdjtmt,"Tintwistle, West Drive (SE-bound)",53.46978,-1.98146
1000DTWD4353,dbsdjtmw,"Tintwistle, North Close (Opp)",53.47003,-1.97741
1000DTWD4356,dbsdjtpa,"Tintwistle, Speedwell Close (Adj)",53.47096,-1.97454
1000DTWD4366,dbsdgmpa,"Tintwistle, West Drive (NW-bound)",53.46974,-1.98153
1000DTWD4367,dbsdgmpd,"Tintwistle, Speedwell Close (opp)",53.47102,-1.97444
1000DTWDN896,dbsdgmpm,"Tintwistle, North Close (Adj)",53.47009,-1.97742
1000DTWR3059,dbsdgmtj,"Tideswell, Whitecross Road (NE-bound)",53.28027,-1.76808
1000DTWR3060,dbsdgmtm,"Tideswell, Anchor Cross Roads (adj)",53.28307,-1.76271
1000DTWW3192,dbsdjtpj,"Tideswell, Whitecross Road (SW-bound)",53.28003,-1.76844
1000DWBB2150,dbsdgpjg,"Whaley Bridge, Railway Station (Adj)",53.33023,-1.98412
1000DWBB2151,dbsdgpjm,"Whaley Bridge, Railway Station (Opp)",53.33051,-1.98400
1000DWCT3713,dbsdmjwd,"Charlestown (Glossop), The Drovers (Opp)",53.43261,-1.95023
1000DWCT3714,dbsdmjwg,"Charlestown (Glossop), The Drovers (Adj)",53.43313,-1.95059
1000DSWR3474,dbsdatdp,"Simmondley, Werneth Road Middle (NW-bound)",53.43751,-1.96833
1000DSWR3475,dbsdatdt,"Simmondley, Police Station (Adj)",53.43975,-1.96959
1000DSWRA941,dbsdgwdg,"Simmondley, Arden Close (adj)",53.43861,-1.96631
1000DTCS4156,dbsdgwjd,"Tintwistle, Conduit Street (E-bound)",53.47142,-1.97272
1000DTCS4365,dbsdgwjg,"Tintwistle, Conduit Street (W-bound)",53.47138,-1.97266
1000DTFS3309,dbsdgwpg,"Tideswell, Fountain Square (Opp)",53.27689,-1.77443
1000DTFST123,dbsdgwpj,"Tideswell, Fountain Square (Adj)",53.27690,-1.77461
1000DRDR3376,dbsdmgag,"Rowsley, Peacock Hotel (opp)",53.18891,-1.61802
1000DRDRP534,dbsdadgw,"Rowsley, Peacock Hotel (adj)",53.18909,-1.61801
1800EB02981,manadjpj,"Levenshulme, Lloyd Road/Stockport Road (O/s Offices)",53.43575,-2.18373
1800EB02991,manadjpm,"Levenshulme, Stockport Road/Carrill Grove (O/s Shop)",53.44548,-2.19139
1800EB03011,manadjta,"Levenshulme, Stockport Road/Delamere Road (O/s House 935)",53.44216,-2.18992
1800EB03551,manadjtd,"Crowcroft Park, Stockport Road/Matthews Lane (Opp Car Wash)",53.45031,-2.19313
1800EB03561,manadjtg,"Crowcroft Park, Stockport Road/Matthews Lane (O/s Garage)",53.44984,-2.19250
1800EB03571,manadjtj,"Levenshulme, Stockport Road/Woodfold Ave (O/s Post Office)",53.44787,-2.19180
1800EB03581,manadjtm,"Levenshulme, Stockport Road/Mayfield Road (Os Shop)",53.44755,-2.19143
1800EB03591,manadjtp,"Levenshulme, Stockport Road/Carrill Grove (O/s Hair Salon)",53.44563,-2.19164
1800EB03601,manadjtw,"Levenshulme, Stockport Road/Albert Road (O/s Furniture shop)",53.44372,-2.19146
1800EB03611,manadjwa,"Levenshulme, Stockport Road/Albert Road (O/s Shop)",53.44291,-2.19104
1800EB03621,manadjwd,"Levenshulme, Stockport Road/Crayfield Road (O/s Newsagents)",53.44123,-2.18915
1800EB03631,manadjwg,"Levenshulme, Stockport Road/Crayfield Road (Os House 977)",53.44072,-2.18838
1800EB03641,manadjwj,"Levenshulme, Stockport Road/Broom Lane (Opp House 1086)",53.43919,-2.18680
1800EB03651,manadjwm,"Levenshulme, Stockport Road/Broom Lane (Opp House 1025)",53.43951,-2.18738
1800EB03661,manadjwp,"Levenshulme, Stockport Rd/Lloyd Road (O/s House 1184)",53.43643,-2.18494
1800EB03671,manadjwt,"Burnage, Errwood Road/Crossley Road (O/s School field)",53.43603,-2.19429
1800EB03681,manadmad,"Levenshulme, Errwood Road/Cringle Park (O/s Park)",53.43700,-2.19378
1800EB03691,manadmag,"Levenshulme, Errwood Road/Crompton Road (O/s School)",53.43723,-2.19387
1800EB03701,manadmaj,"Levenshulme, Errwood Road/Clare Road (Opp House 42)",53.43926,-2.19301
1800EB03711,manadmam,"Levenshulme, Errwood Road/Milwain Road (O/s House 36)",53.43977,-2.19324
1800EB03721,manadmap,"Levenshulme, Marshall Road/Alma Road (O/s House 50)",53.44242,-2.19289
1800EB03731,manadmat,"Levenshulme, Marshall Road/Alma Road (O/s House 54)",53.44233,-2.19298
1800EB03741,manadmaw,"Levenshulme, Albert Road/Levenshulme Station (O/s Chemist)",53.44415,-2.19322
1800EB03751,manadmda,"Levenshulme, Albert Road/Levenshulme Station (Nr Train Stn)",53.44399,-2.19331
1800EB03761,manadmdg,"Levenshulme, Albert Road/Assembly Hall (O/s House 72)",53.44386,-2.19741
1800EB03771,manadmdj,"Levenshulme, Moseley Road/Slade Lane (O/s Graphic House)",53.44310,-2.19969
1800EB03781,manadmdm,"Levenshulme, Moseley Road/Kingsway Hotel  (Stop H)",53.44270,-2.20219
1800EB03791,manadmdp,"Levenshulme, Moseley Road/Kingsway Hotel  (Stop J)",53.44249,-2.20240
1800EB03811,manadmdt,"Levenshulme, Slade Lane/Albert Road (O/s Bowling Green)",53.44307,-2.19903
1800EB03821,manadmdw,"Levenshulme, Slade Lane/Scarisbrick Road (O/s House 374a)",53.44141,-2.19991
1800EB03831,manadmga,"Levenshulme, Slade Lane/Scarisbrick Road (Opp House 384)",53.44084,-2.19988
1800EB03841,manadmgd,"Burnage, Slade Lane/Cringle Hall Road (Opp House 297)",53.43967,-2.20039
1800EB03851,manadmgj,"Burnage, Burnage Lane/York House (Opp flats 1/3)",53.43913,-2.19981
1800EB03861,manadmgm,"Burnage, Burnage Lane/Acacias School (Opp School)",53.43749,-2.20022
1800EB03871,manadmgp,"Burnage, Burnage Lane/Acacias School (O/s Primary School)",53.43735,-2.20003
1800EB03881,manadmgt,"Burnage, Burnage Lane/Crossley Road (Opp Church)",53.43588,-2.20031
1800EB03891,manadmgw,"Burnage, Burnage Lane/Crossley Road (Nr Church)",53.43540,-2.20018
1800EB03901,manadmja,"Burnage, Burnage Lane/Mauldeth Road (O/s Supermarket)",53.43292,-2.20067
1800EB03911,manadmjd,"Burnage, Avon Road/Errwood Road (O/s House 50)",53.43161,-2.19698
1800EB03921,manadmjg,"Burnage, Burnage Lane/Mauldeth Road (O/s Shops)",53.43224,-2.20058
1800EB03931,manadmjm,"Burnage, Burnage Lane/Farmers Arms (Opp Community Centre)",53.43065,-2.20113
1800EB03941,manadmjp,"Burnage, Burnage Lane/St Bernard's (Opp Church)",53.42914,-2.20107
1800EB03951,manadmjt,"Burnage, Burnage Lane/Burnage High Sch (O/s College grounds)",53.42765,-2.20274
1800EB03961,manadmjw,"Burnage, Burnage Lane/Burnage High School (O/s House 427)",53.42745,-2.20265
1800EB03971,manadmpa,"Owens Park, Moseley Road/Ladybarn Lane (O/s Flats 1/8)",53.44194,-2.21449
1800EB03981,manadmpd,"Owens Park, Moseley Road/Ladybarn lane (O/s Sports Ground)",53.44209,-2.21321
1800EB03991,manadmpg,"Birchfields, Moseley Rd/Lindleywood Rd (O/s Sports Ground)",53.44204,-2.20886
1800EB04001,manadmpj,"Birchfields, Moseley Road/Lindleywood Road (O/s House 122)",53.44190,-2.21087
1800EB04071,manadmpm,"Ancoats, Great Ancoats St/Laystall St (O/s Retail Park)",53.48114,-2.22510
1800EB04121,manadmpt,"Burnage, Crossley Road/Errwood Road (O/s Park)",53.43554,-2.19362
1800EB04131,manadmpw,"Burnage, Errwood Road/Crossley Road (O/s Park)",53.43506,-2.19448
1800EB04141,manadmta,"Burnage, Errwood Road/Avon Road (Opp Park)",53.43183,-2.19576
1800EB04151,manadmtd,"Burnage, Errwood Road/Avon Road (O/s House 155)",53.43102,-2.19587
1800EB04161,manadmtg,"Burnage, Errwood Road/Shawbrook Road (O/s House 200)",53.42951,-2.19656
1800EB04171,manadmtj,"Burnage, Errwood Road/Shawbrook Road (O/s House 197a)",53.42878,-2.19678
1800EB04181,manadmtm,"Burnage, Errwood Road/Westdean Crescent (Opp Golf Course)",53.42731,-2.19924
1800EB04191,manadmtp,"Burnage, Errwood Road/Westdean Crescent (O/s Golf Course)",53.42704,-2.19947
1800EB04201,manadmtw,"Green End (Burnage), Burnage Lane/Green End Hotel (O/s House 490)",53.42457,-2.20370
1800EB04211,manadmwa,"Green End (Burnage), Burnage Lane/Green End Hotel (O/s House 511)",53.42439,-2.20376
1800EB04221,manadmwd,"Burnage, Burnage Lane/Barcicroft Road (O/s Public House)",53.42286,-2.20778
1800EB04231,manadmwg,"Burnage, Burnage Lane/Barcicroft Road (O/s House 577)",53.42252,-2.20816
1800EB04241,manadmwj,"Burnage, Burnage Lane/Lane End Road (O/s House 627)",53.42105,-2.21086
1800EB04251,manadmwm,"Burnage, Lane End Road/Burnage Lane (O/s Shops)",53.42076,-2.21199
1800EB04261,manadmwp,"Burnage, Fog Lane/Kingsway  (Stop D)",53.42089,-2.21413
1800EB04311,manadmwt,"Didsbury, Fog Lane/Clayton Avenue (O/s House 17)",53.42154,-2.22847
1800EB04321,manadpad,"Didsbury, Fog Lane/Clayton Avenue (O/s House 38)",53.42173,-2.22919
1800EB04331,manadpag,"Didsbury, Fog Lane/Wilmslow Road (Opp House 4)",53.42254,-2.23165
1800EB04341,manadpaj,"Rusholme, Dickenson Road/Wilmslow Road  (Stop D)",53.45216,-2.22141
1800EB04351,manadpam,"Rusholme, Dickenson Road/Wilmslow Road  (Stop C)",53.45192,-2.22189
1800EB04361,manadpap,"Rusholme, Dickenson Road/Birch Polygon (O/s House 136)",53.45287,-2.21563
1800EB04371,manadpat,"Rusholme, Dickenson Road/Birch Polygon (O/s School)",53.45290,-2.21599
1800EB04391,manadpda,"Rusholme, Dickenson Road/Birchfields Road  (Stop C)",53.45364,-2.21215
1800EB04401,manadpdg,"Rusholme, Dickenson Road/Anson Road  (Stop E)",53.45414,-2.21054
1800EB04421,manadpdj,"Longsight, Dickenson Road/Clarence Road (Os Church)",53.45506,-2.20641
1800EB04431,manadpdm,"Longsight, Dickenson Road/Clarence Road (Opp Church)",53.45484,-2.20678
1800EB04441,manadpdp,"Longsight, Dickenson Rd/Longsight Market  (Stop E)",53.45606,-2.20129
1800EB04451,manadpdt,"Longsight, Dickenson Rd/Longsight Market  (Stop D)",53.45623,-2.20104
1800EB04461,manadpdw,"Longsight, Stockport Road/Slade Lane (Nr Rail Bridge)",53.45465,-2.19755
1800EB04471,manadpga,"Longsight, Stockport Road/Slade Lane (Nr Rail Bridge)",53.45451,-2.19702
1800EB04491,manadpgd,"Crowcroft Park, Stockport Road/East Road (Nr House 644)",53.45340,-2.19578
1800EB04501,manadpgj,"Crowcroft Park, Stockport Road/East Road (Nr Park)",53.45288,-2.19506
1800EB04571,manadpgm,"Birchfields, Moseley Road/Birchfields Road  (Stop C)",53.44202,-2.20630
1800EB04581,manadpgp,"Birchfields, Moseley Road/Birchfields Road  (Stop D)",53.44184,-2.20634
1800EB04591,manadpgt,"Burnage, Mauldeth Road/Burnage Lane (Opp Public House)",53.43264,-2.20103
1800EB04601,manadpgw,"Burnage, Mauldeth Road/Burnage Lane (O/s Public House)",53.43253,-2.20116
1800EB04611,manadpja,"Burnage, Mauldeth Road/Kingsway  (Stop E)",53.43230,-2.20672
1800EB04621,manadpjd,"Burnage, Mauldeth Road/Rail Station  (Stop B)",53.43301,-2.20964
1800EB04631,manadpjg,"Burnage, Mauldeth Road/Primary School  (Stop A)",53.43365,-2.21043
1800EB04751,manadpjm,"Manchester City Centre, Church St/The Unicorn  (Stop Cs)",53.48288,-2.23724
1800EB04891,manadpjt,"New Moston, Broadway/West Avenue (O/s House 145)",53.51482,-2.16961
1800EB04901,manadpjw,"New Moston, Broadway/West Avenue (O/s House 134)",53.51505,-2.16992
1800EB04911,manadpma,"New Moston, Broadway/Nuthurst Road (Nr House 88)",53.51736,-2.16890
1800EB05031,manadpmd,"Belle Vue (Manchester), Stanley Grove/Elsham Gardens (Opp Flats 144-46)",53.45876,-2.18981
1800EB05051,manadpmg,"Levenshulme, Slade Lane/Moseley Road (O/s Solicitors)",53.44280,-2.19939
1800EB05111,manadpmj,"Monsall, New Northampton Rd/Business Park (Nr Business Park)",53.50238,-2.20535
1800EB05231,manadpmp,"Monsall, New Northampton Rd/Business Park (Nr Business Park)",53.50228,-2.20522
1800EB05441,manadpmt,"Manchester City Centre, Lever St/Dale St  (Stop Tc)",53.48224,-2.23438
1800EB05451,manadpmw,"Longsight, Northmoor Road/Peel Grove (Opp House 9)",53.45890,-2.19505
1800EB05551,mantdwgj,"Rusholme, Anson Road/St. Anselm Hall  (Stop B)",53.45412,-2.21209
1800EB05561,manadpta,"Moston (Manchester), Nuthurst Road/St Matthew's High School (O/s House 9)",53.51804,-2.17510
1800EB05601,manadptd,"New Moston, Nuthurst Road/Broadway (O/s House 162)",53.51701,-2.16968
1800EB05851,manadptg,"Ryder Brow, Ryder Brow Road/Wayland Road (Os House 9)",53.45721,-2.16743
1800EB05861,manadptj,"West Gorton, Bennett Street/Ercall Avenue (O/s House 26)",53.46896,-2.20760
1800EB05871,manadptm,"West Gorton, Bennett Street/St Benedict's (O/s Church)",53.46954,-2.20404
1800EB05881,manadptp,"West Gorton, Bennett Street/Ercall Avenue (Opp House 26)",53.46903,-2.20766
1800EB05891,manadptw,"West Gorton, Bennett Street/St Benedict's (Opp House 42)",53.46947,-2.20547
1800EB05901,manadpwa,"West Gorton, Kniverton Road/Armitage Court (Nr Playground)",53.46827,-2.20165
1800EB05911,manadpwd,"Beswick (Manchester), Alan Turing Way/Gibbon Street (Opp Stadium)",53.48437,-2.19671
1800EB05921,manadpwg,"Miles Platting, Hulme Hall Lane/Vickers St (O/s Car Park)",53.49343,-2.20792
1800EB05931,manadpwj,"Chorlton upon Medlock, Plymouth Gr/Blood Ctre (Opp Ambulance Stn)",53.46452,-2.22349
1800EB05961,manadpwt,"Miles Platting, Hulme Hall Lane/Vickers Street (Nr Depot)",53.49300,-2.20801
1800EB06021,mantdtmp,"Ancoats, Butler Street/Community Centre (O/s Community Ctr)",53.48481,-2.21752
1800EB06131,mantdtmj,"Miles Platting, Butler Street/Garforth Avenue (Nr Openland)",53.48743,-2.22025
1800EB06141,manadtat,"Longsight, Stockport Rd/Longsight Health Centre  (Stop A)",53.45762,-2.20149
1800EB06161,mantgajt,"Manchester City Centre, Piccadilly/Chatham St  (Stop EX)",53.48039,-2.23418
1800EB06171,manadtaw,"Longsight, Stockport Road/Plymouth Grove (O/s Youth Centre)",53.46031,-2.20556
1800EB06181,manadtda,"Longsight, Stockport Rd/Longsight Police Stn (O/s Police Stn)",53.46140,-2.20773
1800EB06191,manadtdg,"Longsight, Stockport Road/Plymouth Grove West (O/s House 14)",53.46337,-2.21121
1800EB06201,manadtdj,"Longsight, Stockport Rd/Winterford Ave (Opp Sports Hall)",53.46452,-2.21331
1800EB06211,manadtdm,"Ardwick, Stockport Road/Devonshire Street (Nr Playground)",53.46588,-2.21563
1800EB06221,manadtdp,"Brunswick (Manchester), Stockport Road/Apollo Theatre (Nr Apollo Theatre)",53.46894,-2.22213
1800EB06231,manadtdt,"Ardwick, Stockport Road/Apollo Theatre (Opp Apollo)",53.46942,-2.22279
1800EB06241,manadtdw,"Brunswick (Manchester), Stockport Road/Cavanagh Close (Os House 118)",53.46741,-2.21986
1800EB06251,manadtga,"Ardwick, Stockport Rd/Ardwick Post Office (O/s Post Office)",53.46722,-2.21877
1800EB06261,manadtgd,"Ardwick, Stockport Road/Devonshire Street (Op Playground)",53.46575,-2.21506
1800EB06271,manadtgj,"Longsight, Stockport Road/Winterford Avenue (Os Sports Hall)",53.46427,-2.21245
1800EB06281,manadtgm,"Longsight, Stockport Rd/Plymouth Grove West (Nr Daisyworks)",53.46251,-2.20936
1800EB06291,manadtgp,"Longsight, Stockport Road/Plymouth Grove (O/s Public house)",53.46066,-2.20591
1800EB06301,manadtgt,"Longsight, Stockport Rd/Longsight Shopping Ctr  (Stop C)",53.45739,-2.20088
1800EB06311,manadtgw,"Longsight, Stockport Rd/Longsight Shopping Ctr  (Stop B)",53.45760,-2.20119
1800EB06341,manadtja,"Longsight, Slade Lane/Crowcroft Road (O/s Shops)",53.45152,-2.19683
1800EB06351,manadtjd,"Levenshulme, Slade Lane/Park Avenue (Opp House 148)",53.44645,-2.19774
1800EB06361,manadtjg,"Levenshulme, Slade Lane/West Point (O/s House 179)",53.44496,-2.19865
1800EB06401,manadtjm,"Moston (Manchester), Lightbowne Road/Church Lane (Nr Garage)",53.50515,-2.19487
1800EB06411,manadtjp,"Newton Heath, Thorp Road/Halliford Road (Nr Thorp Bridge)",53.50334,-2.19444
1800EB06441,manadtjt,"Harpurhey, Northampton Rd/Business Park (OS Police Stn)",53.50336,-2.19851
1800EB06471,manadtma,"Manchester City Centre, Charles Street/The BBC (Nr BBC)",53.47379,-2.23841
1800EB06581,mantgamt,"Ardwick, Hyde Road/Nicholls College (O/s College)",53.46925,-2.21747
1800EB06621,manadtmj,"Ryder Brow, Levenshulme Rd/Sacred Heart Church (Opp Church)",53.45787,-2.17339
1800EB06631,manadtmp,"Ryder Brow, Levenshulme Road/Ryder Brow Station (O/s Shops)",53.45602,-2.17272
1800EB06641,manadtmt,"Gorton, Knutsford Road/Beckett Street (O/s House 9)",53.46076,-2.17636
1800EB06651,manadtmw,"Belle Vue (Manchester), Garrett Way/Hampden Crescent (Nr Pineapple Ph)",53.46288,-2.17832
1800EB06691,manadtpg,"Ryder Brow, Knutsford Road/Toft Road (O/s Park)",53.45877,-2.17499
1800EB06701,manadtpj,"Belle Vue (Manchester), Melland Road/Balmain Avenue (O/s Sports Ground)",53.45373,-2.17953
1800EB06711,manadtpm,"Ryder Brow, Melland Road/Wembley Road (Opp House 33)",53.45387,-2.17756
1800EB06721,manadtpt,"Ryder Brow, Wembley Road/Harlow Drive (Opp House 93)",53.45247,-2.17453
1800EB06731,manadtpw,"Ryder Brow, Holmcroft Road/Sandown Crescent (O/s House 192)",53.45233,-2.17040
1800EB06741,manadtwa,"Ryder Brow, Wayland Road South/Greenlea Ave (O/s House 10)",53.45308,-2.16851
1800EB06751,manadtwd,"Ryder Brow, Hemsworth Road/Southcross Road (Opp House 138)",53.45398,-2.17178
1800EB06761,mantgapt,"Ancoats, Travis Street/St Andrews Square (O/s Car Park)",53.47721,-2.22465
1800EB06781,manadtwj,"Manchester City Centre, Oldham Rd/New Cross  (Stop Ef)",53.48516,-2.23261
1800EB06881,manadtwp,"East Didsbury (Didsbury), Wilmslow Rd/East Didsbury Stn  (Stop J)",53.41055,-2.22160
1800EB06961,manadwaj,"Manchester City Centre, Newton St/Post Office  (Stop En)",53.48262,-2.23178
1800EB06971,mantgdpa,"Debdale Park, Reddish Lane/Debdale Lane (Adj Pub Car Prk)",53.45682,-2.16020
1800EB07051,mantgdja,"Manchester City Centre, Piccadilly Rail Station (O/s Shops)",53.47824,-2.23192
1800EB07611,manadwap,"Newton Heath, Old Church St/Turning Circle  (Stop F)",53.50197,-2.18363
1800EB07691,manadwat,"Manchester City Centre, Dale St/Oldham St Stop EA (Stop Ea)",53.48235,-2.23523
1800EB07701,manadwda,"Newton Heath, Averill St/Newton Heath Yth Club (Opp Hse 49)",53.50013,-2.17188
1800EB07711,manadwdg,"Owens Park, Wilmslow Road/Cawdor Road (Os Hse 218)",53.44441,-2.21837
1800EB07721,manadwdj,"Rusholme, Oxford Road/St Mary's  (Stop D)",53.45864,-2.22712
1800EB07741,manadwdm,"Rusholme, Wilmslow Rd/Great Western St  (Os Hse 85)",53.45572,-2.22520
1800EB07751,manadwdp,"Rusholme, Wilmslow Rd/Rusholme Centre  (Stop G)",53.45419,-2.22459
1800EB07761,manadwdt,"Rusholme, Wilmslow Rd/Rusholme Centre  (Stop F)",53.45362,-2.22352
1800EB07771,manadwdw,"Rusholme, Wilmslow Rd/Dickenson Rd  (Os Hse 221)",53.45267,-2.22266
1800EB07781,manadwga,"Rusholme, Wilmslow Rd/Platt Fields Park  (Nr Flats)",53.45068,-2.22140
1800EB07791,manadwgd,"Rusholme, Wilmslow Road/Platt Lane  (Opp Garage)",53.45101,-2.22196
1800EB07801,manadwgj,"Owens Park, Wilmslow Road/Grangethorpe Road (Os Flats)",53.44829,-2.21983
1800EB07811,manadwgm,"Owens Park, Wilmslow Road/Grangethorpe Road (Opp Flats)",53.44839,-2.22014
1800EB07831,manadwgp,"Owens Park, Wilmslow Road/Old Hall Lane (Nr Flats)",53.44566,-2.21783
1800EB07841,manadwgt,"Owens Park, Wilmslow Road/Owen's Park  (Stop B)",53.44344,-2.21836
1800EB07851,manadwgw,"Owens Park, Wilmslow Road/Langley Rd  (Stop A)",53.44543,-2.21812
1800EB07861,manadwja,"Fallowfield (Manchester), Wilbraham Road/Wilmslow Road  (Stop C)",53.44274,-2.21932
1800EB07871,manadwjd,"Fallowfield (Manchester), Wilbraham Road/Wilmslow Road  (Stop D)",53.44266,-2.22002
1800EB07881,manadwjg,"Fallowfield (Manchester), Wilbraham Road/Wellington Road (Op Synagogue)",53.44295,-2.22199
1800EB07891,manadwjm,"Fallowfield (Manchester), Wilbraham Road/Wellington Road (Os Flats)",53.44292,-2.22315
1800EB07901,manadwjp,"Fallowfield (Manchester), Wilbraham Road/Hart Road (Os Flats)",53.44325,-2.22559
1800EB07911,manadwjt,"Fallowfield (Manchester), Wilbraham Road/Hart Road (Opp College)",53.44324,-2.22688
1800EB07921,manadwjw,"Fallowfield (Manchester), Wilbraham Road/Yew Tree Road (Opp Pub)",53.44358,-2.23118
1800EB07931,manadwma,"Fallowfield (Manchester), Wilbraham Road/Yew Tree Road (O/s House 8)",53.44373,-2.23101
1800EB07941,manadwmd,"Fallowfield (Manchester), Yew Tree Road/Wilbraham Road (Nr Hse 143)",53.44403,-2.23169
1800EB07951,manadwmg,"Fallowfield (Manchester), Yew Tree Road/Hart Road (Opp House 103)",53.44634,-2.23051
1800EB07961,manadwmj,"Moss Side (Manchester), Yew Tree Road/Platt Lane (Nr Field)",53.44885,-2.23038
1800EB07991,manadwmw,"Parrs Wood, Burnage Lane/Didsbury Road (Openland)",53.41188,-2.21500
1800EB08001,manadwpa,"New Moston, Broadway/Annesley Road (O/s House 57)",53.51884,-2.16767
1800EB08011,manadwpd,"Green End (Burnage), Mauldeth Road/Green End Hotel (Os bowling green)",53.42452,-2.20159
1800EB08061,mantgjmw,"Newton Heath, Averill St/Newton Heath Yth Club (School)",53.50017,-2.17201
1800EB08071,mantgjtp,"Belle Vue (Manchester), Stanley Grove/Pink Bank Lane (Os House 121)",53.45842,-2.19257
1800EB09001,manadwpj,"Piccadilly Gardens, Chatsworth House  (Stop F)",53.48171,-2.23511
1800EB09581,manadwpm,"Harpurhey, Carisbrook Street/Nethervale Drive (Os Hse 8)",53.50732,-2.21082
1800EB09591,manadwpt,"Harpurhey, Carisbrook Street/Nethervale Drive (Os House 4)",53.50742,-2.21158
1800EB10021,manadwtd,"Monsall, Sedgeford Road/Palgrave Avenue (Op Haydon Court)",53.49913,-2.21301
1800EB10031,manadwtg,"Monsall, Sedgeford Road/Hayden Court (Os Flats)",53.49919,-2.21324
1800EB10471,manadwtj,"Manchester City Centre, High St/Turner St Stop NZ (Stop Nz)",53.48413,-2.23804
1800EB10481,manadwtm,"Longsight, Northmoor Road/Peel Grove (O/S House 5)",53.45926,-2.19510
1800AMIC001,manadadg,"Altrincham, Altrincham Interchange (Nr Train Station)",53.38744,-2.34770
1800ANBS001,manadadm,"Ashton Under Lyne, Ashton Bus Station (Nr Shopping Centre)",53.49025,-2.09555
1800BNBS001,manadadt,"Bolton (Bolton), Bolton Bus Station (Nr Market)",53.57729,-2.43345
1800BNIC001,manadadw,"Bolton (Bolton), Bolton Interchange (Op Church)",53.57458,-2.42734
1800BYIC001,manadagd,"Bury (Greater Manchester), Bury Interchange (Nr Kay Garden)",53.59127,-2.29713
1800CSBS001,manadagp,"Manchester City Centre, Manchester Central Coach Station (Op Portland Tower)",53.47770,-2.23764
1800EB00031,manadagt,"Rusholme, Anson Road/Daisy Bank Road (O/S House 11)",53.45716,-2.21729
1800EB00081,manadaja,"Manchester City Centre, Lever St/Warwick St Stop EM (Stop Em)",53.48325,-2.23297
1800EB00111,manadajg,"Moston (Manchester), Hollinwood Avenue/Branston Road  (Stop K)",53.52450,-2.17320
1800EB00151,manadajm,"Parrs Wood, Parrs Wood Lane/Kingsway  (Stop B)",53.41114,-2.21823
1800EB00281,manadama,"Belle Vue (Manchester), Hyde Road/Belle Vue Station  (Stop A)",53.46225,-2.17969
1800EB00531,manadamd,"Crowcroft Park, Mount Road/Matthews Lane (nr School)",53.45102,-2.18017
1800EB00621,manadamp,"Burnage, Burnage Lane/Lavister Avenue (Opp Church)",53.41964,-2.21293
1800EB00831,manadamt,"Ancoats, Great Ancoats St/Adair St (O/s Premises No 275)",53.47877,-2.22124
1800EB00851,manadapa,"Piccadilly Gardens, Lever St/Dale St  (Stop E)",53.48146,-2.23548
1800EB00861,manadapd,"Longsight, Slade Lane/Hamilton Road (Opp Church)",53.45047,-2.19715
1800EB01161,manadapt,"Manchester City Centre, London Road/Travis St (Opp Hotel)",53.47570,-2.23079
1800EB01171,manadapw,"Manchester City Centre, London Road/Travis St (O/s Hotel)",53.47505,-2.22989
1800EB01181,manadata,"Manchester City Centre, London Road/Travis St (O/s Hotel)",53.47562,-2.23024
1800EB01191,manadatd,"Harpurhey, Monsall Road/Burgess Primary School (Opp School)",53.50562,-2.21173
1800EB01201,manadatg,"Manchester City Centre, London Rd/Fairfield St Stop A (Stop A)",53.47675,-2.23140
1800EB01231,manadatp,"Harpurhey, Monsall Road/Burgess Primary School (Nr School)",53.50487,-2.20948
1800EB01241,manadatw,"Longsight, Stanley Grove/Asda (O/s Supermarket)",53.45716,-2.19854
1800EB01251,manadawa,"Manchester City Centre, Piccadilly/Paton St Stop EP (Stop EP)",53.48011,-2.23357
1800EB22031,managmjd,"Harpurhey, Moston Lane/Rochdale Road  (Stop B)",53.51379,-2.21204
1800EB22041,managmjg,"Harpurhey, Moston Lane/Hillier Street North (Opp Public Hse)",53.51337,-2.20684
1800EB22051,managmjm,"Harpurhey, Moston Lane/Hillier Street North (Os Pub)",53.51333,-2.20753
1800EB22061,managmjp,"Moston (Manchester), Moston Lane/Edward Street (Os School)",53.51359,-2.20322
1800EB22071,managmjt,"Moston (Manchester), Moston Lane/Mowers Arms (Op Primary Sch)",53.51382,-2.20301
1800EB22081,managmjw,"Moston (Manchester), Moston Lane/Primary School (Os Hse 226)",53.51370,-2.20116
1800EB22091,managmpa,"Moston (Manchester), Moston Lane/Post Office (Post Office)",53.51388,-2.20031
1800EB22101,managmpd,"New Moston, Nuthurst Road/The Fairway (Os Hse 129)",53.51753,-2.17130
1800EB22111,managmpg,"New Moston, Nuthurst Road/The Fairway (Os Hse 130)",53.51774,-2.17261
1800EB22131,managmpj,"Moston (Manchester), Nuthurst Road/St Mary's Road (Nr Hse 90)",53.51784,-2.17573
1800EB22141,managmpm,"Moston (Manchester), Nuthurst Road/St Mary's Road (Os Church)",53.51789,-2.17724
1800EB22161,managmpt,"Moston (Manchester), St Mary's Road/Arden Grove (Os Hse 316)",53.51533,-2.17984
1800EB22171,managmpw,"Moston (Manchester), St Mary's Road/Arden Grove (Opp House 324)",53.51599,-2.17939
1800EB24271,managmta,"Manchester City Centre, Church St/The Unicorn Stop CN (Stop Cn)",53.48312,-2.23780
1800EB24311,managmtj,"Manchester City Centre, Oldham St/Warwick St Stop EE (Stop EE)",53.48397,-2.23361
1800EB24351,managmtp,"Ancoats, Oldham Road/Thompson Street (Op Shops)",53.48676,-2.22825
1800EB24371,managmtw,"Ancoats, Great Ancoats Street/Jersey Street (Opp Car Park)",53.48299,-2.22930
1800EB24381,managmwa,"Ancoats, Great Ancoats Street/Jersey Street (Nr Hse 78)",53.48304,-2.22979
1800EB24441,managmwd,"Manchester City Centre, Stevenson Square  (Stop Eb)",53.48268,-2.23433
1800EB27511,managmwg,"Belle Vue (Manchester), Pink Bank Lane/Stanley Grove (Os School)",53.46004,-2.19217
1800EB27521,managmwj,"Belle Vue (Manchester), Pink Bank Lane/Stanley Grove (Os Leisure Centre)",53.45950,-2.19165
1800EB27531,managmwm,"Belle Vue (Manchester), Stanley Grove/Penketh Avenue (Os Hse 193)",53.45915,-2.18804
1800EB27541,managmwp,"Belle Vue (Manchester), Stanley Grove/Penketh Avenue (Shops)",53.45920,-2.18719
1800EB27551,managmwt,"Belle Vue (Manchester), Stanley Grove/Bourton Drive (Opp House 212)",53.45996,-2.18426
1800EB27561,managpad,"Belle Vue (Manchester), Stanley Grove/Fernhill Drive (Os Hse 226)",53.46013,-2.18298
1800EB27571,managpag,"Levenshulme, Barlow Road/Broom Lane (Post Office)",53.44563,-2.18141
1800EB27581,managpaj,"Levenshulme, Barlow Road/Broom Lane (Nr Blue Bell)",53.44532,-2.18316
1800EB27591,managpam,"Levenshulme, Barlow Road/Levenshulme Library (Opp Baths)",53.44525,-2.18522
1800EB27601,managpap,"Levenshulme, Barlow Road/Levenshulme Library (Nr Library)",53.44538,-2.18531
1800EB27611,managpat,"Levenshulme, Cromwell Grove/Cardus Street (Os Hse 19)",53.44501,-2.19034
1800EB27621,managpaw,"Levenshulme, Cromwell Grove/Cardus Street (Os Hse 6)",53.44493,-2.19076
1800EB27861,managpda,"Moston (Manchester), Moston Lane/Ebsworth Street (Nr Bowling Grn)",53.51398,-2.19752
1800EB31521,managpdg,"Gorton, Hyde Road/Wellington Street (Os Building 961)",53.46054,-2.16983
1800EB31531,managpdj,"Gorton, Hyde Road/Wellington Street (Os Shop 640)",53.46088,-2.17228
1800EB31541,managpdm,"Gorton, Hyde Road/Whitwell Way (Opp Kwik Save)",53.46165,-2.17540
1800EB31551,managpdp,"Belle Vue (Manchester), Hyde Road/Sunny Brow Road (Os Shop 538)",53.46195,-2.17808
1800EB31561,managpdt,"Belle Vue (Manchester), Hyde Road/Chatsworth Road (Os Hse 526)",53.46204,-2.17859
1800EB31571,managpdw,"Belle Vue (Manchester), Hyde Road/Belle Vue  (Stop H)",53.46312,-2.18200
1800EB31591,managpgd,"Belle Vue (Manchester), Hyde Road/Belle Vue  (Stop F)",53.46301,-2.18397
1800EB31611,managpgj,"West Gorton, Wenlock Way/Bayston Walk (Open Land)",53.46939,-2.19494
1800EB31621,managpgm,"West Gorton, Wenlock Way/Clowes Street (Open Land)",53.46926,-2.19522
1800EB31631,managpgp,"West Gorton, Wenlock Way/Woodfall Close (Op Hse 106)",53.46905,-2.19691
1800EB31641,managpgt,"West Gorton, Wenlock Way/Bayston Walk (Woodfall Close)",53.46878,-2.19790
1800EB31651,managpgw,"West Gorton, Wenlock Way/ICL (Icl Entrance)",53.46862,-2.19930
1800EB31661,managpja,"West Gorton, Wenlock Way/ICL (Icl)",53.46824,-2.20082
1800EB31681,managpjd,"Newton Heath, Oldham Road/Dean Lane  (Stop D)",53.50289,-2.18215
1800EB31691,managpjg,"Newton Heath, Oldham Road/Droylsden Road  (Stop G)",53.50287,-2.18099
1800EB31701,managpjm,"Newton Heath, Oldham Road/Droylsden Road (Nr Mc Donalds)",53.50337,-2.17911
1800EB32011,managpjp,"Ancoats, Great Ancoats Street/Rochdale Canal (Op Currys)",53.48188,-2.22772
1800EB32041,managpjt,"Ancoats, Old Mill Street/Ancoats Clinic (Os Clinic)",53.48232,-2.22134
1800EB32051,managpjw,"Ancoats, Old Mill Street/Ancoats Clinic (Os Clinic)",53.48239,-2.22091
1800EB32061,managpma,"Miles Platting, Bradford Road/Butler Street (Os Warehouse)",53.48508,-2.21522
1800EB32071,managpmd,"Miles Platting, Bradford Road/Butler Street (Nr Hse 33)",53.48478,-2.21612
1800EB32081,managpmg,"Miles Platting, Bradford Road/Cambrian Street (Nr Hse 12)",53.48587,-2.21341
1800EB32091,managpmj,"Miles Platting, Bradford Rd/Cambrian St (Op Flats 54-56)",53.48654,-2.21210
1800EB32101,managpmp,"Miles Platting, Bradford Road/Bradford Inn (Os Pub)",53.48725,-2.21009
1800EB32111,managpmt,"Miles Platting, Bradford Road/Varley Street (Op Joinery)",53.48789,-2.20889
1800EB32121,managpmw,"Miles Platting, Bradford Road/Saxon Street (Op Hse 9)",53.48848,-2.20726
1800EB32131,managpta,"Miles Platting, Bradford Road/Saxon Street (Op Midway Depot)",53.48893,-2.20640
1800EB32141,managptd,"Miles Platting, Bradford Road/Hulme Hall Lane (Nr Dcd Ltd)",53.49015,-2.20359
1800EB32151,managptg,"Miles Platting, Bradford Road/Hulme Hall Lane (op Warehouse)",53.49023,-2.20385
1800EB32161,managptj,"Miles Platting, Hulme Hall Lane/Lord North St (Nr Warehouse)",53.49180,-2.20554
1800EB32171,managptm,"Miles Platting, Hulme Hall Lane/Bradford Road (Os Hse 162)",53.49078,-2.20408
1800EB32191,managptp,"Miles Platting, Hulme Hall Lane/Oldham Rd  (Stop D)",53.49466,-2.20961
1800EB32201,managptw,"Miles Platting, Hulme Hall Lane/Oldham Rd  (Stop C)",53.49550,-2.20987
1800EB32211,managpwa,"Miles Platting, Oldham Road/Queens Road  (Stop E)",53.49522,-2.21204
1800EB32221,managpwd,"Miles Platting, Oldham Road/Varley Street (Nr Openland)",53.49444,-2.21502
1800EB32231,managpwg,"Miles Platting, Oldham Road/Varley Street (O/s House 39)",53.49376,-2.21620
1800EB32241,managpwj,"Miles Platting, Oldham Road/Fir Street (Op Church)",53.49278,-2.21833
1800EB32251,managpwm,"Miles Platting, Oldham Road/New Allen Street (Opp Alcan)",53.49152,-2.21923
1800EB32261,managpwp,"Miles Platting, Oldham Road/Naylor Street (Opp House 7)",53.49097,-2.22021
1800EB32271,managpwt,"Miles Platting, Oldham Road/Naylor Street (Os Flats)",53.48993,-2.22091
1800EB32281,managtad,"Miles Platting, Oldham Road/Butler Street (Op Flats)",53.48917,-2.22235
1800EB32291,managtag,"Miles Platting, Oldham Road/Butler Street (Os Flats)",53.48871,-2.22250
1800EB32301,managtaj,"Miles Platting, Butler Street/Oldham Road (Os Factory)",53.48791,-2.22308
1800EB32311,managtam,"Miles Platting, Butler Street/Holland Street (Opp Brown Cow)",53.48653,-2.21864
1800EB32321,managtap,"Ancoats, Oldham Road/Royal Mail Office (Post Office)",53.48742,-2.22643
1800EB32331,managtat,"Ancoats, Oldham Road/Royal Mail Office (Nr Nicholas&par)",53.48735,-2.22599
1800EB32351,managtaw,"Ancoats, Oldham Road/Thompson Street (Op Bank)",53.48631,-2.22886
1800EB32371,managtda,"Ancoats, Great Ancoats St/Old Mill St (Op Retail Park)",53.48023,-2.22410
1800EB32381,managtdg,"Ancoats, Great Ancoats Street/Old Mill Street (Os Flats)",53.48045,-2.22389
1800EB32471,managtgd,"Ancoats, Ashton New Road/Beswick Street (Nr River)",53.48261,-2.21322
1800EB32481,managtgj,"Ancoats, Ashton New Road/Beswick Street (Nr Open Land)",53.48282,-2.21252
1800EB32491,managtgm,"Beswick (Manchester), Ashton New Road/Hillkirk Street (Nr Openland)",53.48206,-2.20714
1800EB32501,managtgp,"Beswick (Manchester), Ashton New Road/Councillor Street (Nr Pc Hydraulic)",53.48240,-2.20824
1800EB32511,managtgt,"Beswick (Manchester), Ashton New Road/Darley Street (Opp Volvo)",53.48177,-2.20563
1800EB32521,managtgw,"Gorton, Cross Lane/Gorton Labour Club (Opp Labour Club)",53.46316,-2.16998
1800EB32531,managtja,"Beswick (Manchester), Ashton New Rd/City of MCR Stadium (Nr Garage)",53.48165,-2.20248
1800EB32541,managtjd,"Beswick (Manchester), Ashton New Rd/City of MCR Stadium (Op Build 284)",53.48178,-2.20290
1800EB32551,managtjg,"Beswick (Manchester), Ashton New Road/Grey Mare Lane  (Stop A)",53.48148,-2.19692
1800EB32561,managtjm,"Beswick (Manchester), Alan Turing Way/Ashton New Road  (Stop D)",53.48206,-2.19563
1800EB32571,managtjp,"Beswick (Manchester), Alan Turing Way/Phillips Park (Os Park)",53.48690,-2.19844
1800EB32581,managtjt,"Beswick (Manchester), Alan Turing Way/Philips Park Road (Nr Canal)",53.48523,-2.19783
1800EB32591,managtjw,"Miles Platting, Alan Turing Way/Briscoe Lane (Os Park)",53.48932,-2.20050
1800EB32601,managtma,"Beswick (Manchester), Alan Turing Way/Philips Park (Op Park)",53.48778,-2.19963
1800EB32611,managtmd,"Miles Platting, Briscoe Lane/Philips Park (Op Fire Station)",53.49018,-2.20076
1800EB32621,managtmg,"Miles Platting, Briscoe Lane/Philips Park (Opp Philips Pk)",53.49054,-2.20058
1800EB32631,managtmj,"Miles Platting, Briscoe Lane/Riverpark Road (Os Cemetery)",53.49146,-2.19825
1800EB32641,managtmp,"Miles Platting, Briscoe Lane/Riverpark Road (Nr Warehouse)",53.49213,-2.19695
1800EB32651,managtmt,"Newton Heath, Briscoe Lane/Grimshaw Lane (Os Railway Stn)",53.49317,-2.19425
1800EB32661,managtmw,"Newton Heath, Briscoe Lane/Grimshaw Lane (Op Openland)",53.49361,-2.19345
1800EB32671,managtpa,"Newton Heath, Briscoe Lane/Ten Acres Lane (Co-op)",53.49418,-2.19190
1800EB32681,managtpd,"Newton Heath, Briscoe Lane/Ten Acres Lane (Os Hse 180)",53.49504,-2.19013
1800EB32691,managtpg,"Newton Heath, Briscoe Lane/Crayford Road (Os Hse 195)",53.49574,-2.18818
1800EB32701,managtpj,"Newton Heath, Briscoe Lane/Hallam Road (Op Hse 4)",53.49673,-2.18615
1800EB32711,managtpm,"Newton Heath, Briscoe Lane/Phoenix (Os Pub)",53.49730,-2.18456
1800EB32721,managtpt,"Newton Heath, Briscoe Lane/Phoenix (Os Hse 120)",53.49771,-2.18387
1800EB32731,managtpw,"Newton Heath, Briscoe Lane/Wellpark Walk (Os Hse 3)",53.49890,-2.18074
1800EB32741,managtwa,"Newton Heath, Briscoe Lane/Crawford Street (Nr Barbers)",53.49911,-2.18047
1800EB32751,managtwd,"Newton Heath, Briscoe Lane/All Saints Church (O/s House 2)",53.49978,-2.17870
1800EB32761,managtwg,"Newton Heath, Old Church St/Newton Heath Shops (Op Shops)",53.50072,-2.17967
1800EB32771,managtwj,"Newton Heath, Old Church St/Newton Heath Shops (Chip Shop)",53.50117,-2.18117
1800EB32781,managtwm,"Newton Heath, Old Church St/Oldham Road  (Stop E)",53.50216,-2.18348
1800EB32791,managtwp,"Newton Heath, Oldham Road/Dean Lane  (Stop C)",53.50240,-2.18496
1800EB32801,managtwt,"Newton Heath, Oldham Rd/Newton Heath Post Office (Post Off)",53.50218,-2.18830
1800EB32811,managwad,"Newton Heath, Oldham Rd/Newton Heath Post Office (Op Church)",53.50185,-2.18952
1800EB32821,managwag,"Newton Heath, Oldham Road/Thorp Road (os Warehouse)",53.50141,-2.19419
1800EB32831,managwaj,"Newton Heath, Oldham Road/Thorp Road (op Warehouse)",53.50122,-2.19386
1800EB32841,managwam,"Newton Heath, Oldham Road/Ten Acres Lane (Os warehouse)",53.50047,-2.19686
1800EB32851,managwap,"Newton Heath, Oldham Road/Ten Acres Lane (Op Nursery)",53.49975,-2.19799
1800EB32861,managwat,"Newton Heath, Oldham Road/Baltimore Street (Op Hotel)",53.49915,-2.20070
1800EB32881,managwaw,"Newton Heath, Oldham Road/Grimshaw Lane (Opp Wormald Ltd)",53.49857,-2.20241
1800EB32891,managwda,"Newton Heath, Oldham Road/Grimshaw Lane (Os Cash & Carry)",53.49792,-2.20386
1800EB32901,managwdg,"Miles Platting, Oldham Road/Queens Road  (Stop B)",53.49617,-2.20983
1800EB32921,managwdm,"Beswick (Manchester), Ashton New Road/Alan Turing Way  (Stop C)",53.48129,-2.19617
1800EB32941,managwdp,"Clayton (Manchester), Ashton New Road/Ciba Works (Os Bank)",53.48277,-2.18962
1800EB32951,managwdt,"Clayton (Manchester), Ashton New Road/Ciba Works (Nr Police Stati)",53.48320,-2.18843
1800EB32961,managwdw,"Clayton (Manchester), Ashton New Road/North Road (Nr Grove Inn)",53.48327,-2.18475
1800EB32971,managwga,"Clayton (Manchester), Bank Street/Tartan Street (Op House 68)",53.48610,-2.18929
1800EB32981,managwgd,"Clayton (Manchester), Bank Street/Ravensbury School (Os school)",53.48643,-2.18930
1800EB32991,managwgj,"Clayton (Manchester), Tartan Street/Ravensbury School (Nr School)",53.48684,-2.18839
1800EB33001,managwgm,"Clayton (Manchester), Tartan Street/Pioneer Street (Os house 21)",53.48732,-2.18650
1800EB33011,managwgp,"Clayton (Manchester), Clayton Street/Tartan Street (Os house 63)",53.48743,-2.18442
1800EB33021,managwgt,"Clayton (Manchester), Clayton Street/Tartan Street (Os house 92)",53.48724,-2.18414
1800EB33031,managwgw,"Clayton (Manchester), Clayton Street/Clayton Library (Opp House 16)",53.48495,-2.18295
1800EB33041,managwja,"Clayton (Manchester), Clayton Street/Clayton Library (Os library)",53.48462,-2.18260
1800EB33051,managwjd,"Clayton (Manchester), Clayton Street/North Road (St Cross Church)",53.48369,-2.18274
1800EB33081,managwjp,"Clayton (Manchester), North Road/Clayton Hall Road (Op Bowling Green)",53.48481,-2.18056
1800EB33091,managwjt,"Clayton (Manchester), North Road/Vale Street (Os Funeral Services)",53.48505,-2.17900
1800EB33101,managwjw,"Clayton (Manchester), North Road/Vale Street (Os Church)",53.48543,-2.17754
1800EB33111,managwma,"Clayton (Manchester), North Road/Folkestone Road (Os house 118)",53.48571,-2.17333
1800EB33121,managwmd,"Clayton (Manchester), North Road/Folkestone Road (Adj Garden 321)",53.48586,-2.17266
1800EB33131,managwmg,"Clayton (Manchester), North Road/Edge Lane (Os House 144)",53.48596,-2.17039
1800EB33141,managwmj,"Clayton (Manchester), North Road/Edge Lane (Os House 343)",53.48611,-2.16979
1800EB33201,managwmp,"Clayton (Manchester), Ashton New Road/Edge Lane  (Stop B)",53.48101,-2.16737
1800EB33211,managwmt,"Clayton (Manchester), Ashton New Road/Aldi (Op Supermarket)",53.48152,-2.17020
1800EB33221,managwmw,"Clayton (Manchester), Ashton New Road/Aldi (Os Supermarket)",53.48149,-2.17105
1800EB33231,managwpa,"Clayton (Manchester), Ashton New Road/Schofield Street (Os House 723)",53.48220,-2.17539
1800EB33241,managwpd,"Clayton (Manchester), Ashton New Road/Schofield Street (Opp No. 721)",53.48211,-2.17577
1800EB33251,managwpg,"Clayton (Manchester), Ashton New Road/Canberra Street (Os House 669)",53.48248,-2.17759
1800EB33261,managwpj,"Clayton (Manchester), Ashton New Road/Canberra Street (Opp Petrol Stn)",53.48252,-2.17905
1800EB33271,managwpm,"Clayton (Manchester), Ashton New Road/Clayton Lane (Os Church)",53.48303,-2.18186
1800EB33291,managwpt,"Clayton (Manchester), Ashton New Rd/North Rd (Os Recreation Grnd)",53.48347,-2.18513
1800EB33311,managwpw,"Miles Platting, Queens Road/Oldham Road  (Stop A)",53.49609,-2.21188
1800EB33321,managwta,"Collyhurst, Queens Road/Sedgeford Road (Opp House 11)",53.49788,-2.21347
1800EB33331,managwtd,"Collyhurst, Queens Road/Sedgeford Road (Os House 262)",53.49852,-2.21446
1800EB33341,managwtg,"Monsall, Queens Road/Monsall Street (Opp House 238)",53.49920,-2.21482
1800EB33351,managwtj,"Monsall, Queens Road/Monsall Street (Os House 162)",53.50051,-2.21612
1800EB33361,managwtm,"Queens Park (Collyhurst), Queens Road/Rochdale Road  (Stop E)",53.50233,-2.21761
1800EB33371,managwtp,"Monsall, Monsall Street/Queens Road (Os House 2)",53.50014,-2.21495
1800EB33381,managwtw,"Monsall, Monsall Street/Sedgeford Road (Opp 12)",53.50054,-2.21407
1800EB33391,manajada,"Monsall, Upper Monsall St/Jocelyn St (Nr Community Centre)",53.50171,-2.21048
1800EB33401,manajadg,"Monsall, Upper Monsall St/Jocelyn St (Op Community Centre)",53.50187,-2.21025
1800EB33411,manajadj,"Monsall, Upper Monsall Street/Monsall Road (Opp School)",53.50278,-2.20726
1800EB33421,manajadm,"Monsall, Monsall Road/Upper Monsall Street (Ex Hospital)",53.50277,-2.20638
1800EB33451,manajadw,"Harpurhey, Northampton Road/Business Park (Op Offices)",53.50283,-2.20031
1800EB33461,manajaga,"Harpurhey, Northampton Road/Business Park (Nr offices)",53.50313,-2.19970
1800EB33491,manajagd,"Harpurhey, Northampton Rd/Thorp Rd (Nr Roundabout)",53.50393,-2.19689
1800EB33501,manajagj,"Moston (Manchester), Lightbowne Road/Thorp Road (Nr Grassland)",53.50479,-2.19498
1800EB33511,manajagm,"Moston (Manchester), Lightbowne Road/Hugo Street (Nr Grassland)",53.50660,-2.19370
1800EB33521,manajagp,"Moston (Manchester), Lightbowne Road/Hugo Street (Os Nursery)",53.50736,-2.19291
1800EB33531,manajagt,"Moston (Manchester), Lightbowne Road/Brendon Avenue (Op Shop)",53.50892,-2.19183
1800EB33541,manajagw,"Moston (Manchester), Lightbowne Road/Co-op (Co-op Store)",53.50911,-2.19150
1800EB33551,manajaja,"Harpurhey, Church Lane/Lightbowne Road (Nr Grassland)",53.50503,-2.19667
1800EB33561,manajajd,"Harpurhey, Church Lane/Lightbowne Road (Nr Grassland)",53.50519,-2.19673
1800EB33571,manajajg,"Harpurhey, Church Lane/Holmfield Avenue (Opp House 229)",53.50638,-2.20071
1800EB33581,manajajm,"Harpurhey, Church Lane/Holmfield Avenue (Os House 217)",53.50706,-2.20153
1800EB33591,manajajp,"Harpurhey, Church Lane/Potters Lane (Os Church)",53.50809,-2.20378
1800EB33601,manajajt,"Harpurhey, Church Lane/Potters Lane (Opp House No 174)",53.50805,-2.20336
1800EB33611,manajajw,"Harpurhey, Church Lane/Amos Street (Opp House 143)",53.50923,-2.20539
1800EB33621,manajama,"Harpurhey, Church Lane/Amos Street (Os Nursing Home)",53.50919,-2.20495
1800EB33631,manajamd,"Harpurhey, Church Lane/Willow Bank (Os Surgery)",53.50985,-2.20916
1800EB33641,manajamg,"Harpurhey, Fernclough Road/Bentworth Walk (Nr Ockenden Dv)",53.50984,-2.21230
1800EB33651,manajamj,"Harpurhey, Fernclough Road/Carisbrook St (Opp Flat 142-48)",53.50941,-2.21593
1800EB33661,manajamp,"Harpurhey, Fernclough Way/Carisbrook Street (Op Flats)",53.50930,-2.21584
1800EB33671,manajamt,"Harpurhey, Fernclough Road/The Shiredale (Op The Sh`dale)",53.50776,-2.21654
1800EB33681,manajamw,"Harpurhey, Fernclough Road/The Shiredale (Nr Open Land)",53.50701,-2.21670
1800EB33691,manajapa,"Harpurhey, Fernclough Road/Ark Royal (Nr Open Land)",53.50655,-2.21695
1800EB33741,manajapd,"Manchester City Centre, Fairfield St/Piccadilly Rail Stn  (Stop D)",53.47627,-2.22988
1800EB33751,manajapg,"Manchester City Centre, Fairfield St/Piccadilly Station  (Stop C)",53.47643,-2.23013
1800EB33761,manajapj,"Ardwick, Fairfield Street/Mancunian Way (Op Leehall Text)",53.47553,-2.22126
1800EB33771,manajapm,"Ardwick, Fairfield Street/Mancunian Way (Nr Architects)",53.47562,-2.22094
1800EB33781,manajapt,"Ardwick, Ashton Old Road/Chancellor Lane (Op Car Dealer)",53.47536,-2.21545
1800EB33791,manajapw,"Ardwick, Ashton Old Road/Rondin Road (Archway Autos)",53.47492,-2.21108
1800EB33801,manajata,"Ardwick, Ashton Old Rd/Rondin Rd (Nr Railway Bridge)",53.47503,-2.20995
1800EB33811,manajatd,"Ardwick, Ashton Old Road/Claribel Street (Nr Railway Bridge)",53.47487,-2.20933
1800EB33821,manajatg,"Ardwick, Ashton Old Road/Gorton Road (Nr Pub)",53.47495,-2.20845
1800EB33831,manajatj,"Beswick (Manchester), Ashton Old Road/Stainforth Street (Os Wing Fat)",53.47447,-2.20204
1800EB33841,manajatm,"Beswick (Manchester), Ashton Old Road/Stainforth Street (Opp Warehouse)",53.47461,-2.20154
1800EB33851,manajatp,"Beswick (Manchester), Ashton Old Road/Kay Street (Nr Harling & Watson)",53.47430,-2.19948
1800EB33861,manajatw,"Beswick (Manchester), Ashton Old Road/Pottery Lane  (Stop B)",53.47409,-2.19570
1800EB33871,manajawa,"Beswick (Manchester), Alan Turing Way/Ashton Old Road  (Stop C)",53.47476,-2.19463
1800EB33881,manajawd,"Beswick (Manchester), Grey Mare Lane/St Brigid's School (Opp School)",53.47821,-2.19612
1800EB33891,manajawg,"Beswick (Manchester), Grey Mare Lane/Queen Victoria (Nr Pub)",53.47958,-2.19706
1800EB33901,manajawj,"Beswick (Manchester), Grey Mare Lane/Ashton New Road  (Stop B)",53.48094,-2.19742
1800EB33911,manajawm,"Beswick (Manchester), Grey Mare Lane/Beswick Shopping Ctr  (Stop D)",53.47739,-2.19527
1800EB33921,manajawp,"Beswick (Manchester), Ashton Old Rd/Alan Turing Way  (Stop D)",53.47428,-2.19339
1800EB33931,manajawt,"Openshaw, Ashton Old Road/Clayton Lane Sth (Nr Mantec)",53.47388,-2.19008
1800EB33941,manajdad,"Openshaw, Ashton Old Road/Clayton Lane South (Nr Leigh Arms)",53.47395,-2.18868
1800EB33951,manajdag,"Openshaw, Ashton Old Road/Crossley House (Op Leigh Arms)",53.47370,-2.18675
1800EB33961,manajdaj,"Openshaw, Ashton Old Road/Wood Street (Nr Whitworth Ct)",53.47378,-2.18563
1800EB33971,manajdam,"Openshaw, Ashton Old Road/Welcomb Street (Op DIY Centre)",53.47350,-2.18346
1800EB10491,manadwtp,"Longsight, Northmoor Road/Shopping Arcade (Os Hse 93)",53.45630,-2.19316
1800EB10501,manadwtw,"Crowcroft Park, Northmoor Road/Santley St (O/s House 147)",53.45479,-2.19217
1800EB10511,managada,"Crowcroft Park, Northmoor Road/East Road (Opp 179)",53.45371,-2.19164
1800EB10521,managadg,"Crowcroft Park, Northmoor Road/Stovell Avenue (op School)",53.45201,-2.19040
1800EB10531,managadj,"Crowcroft Park, Northmoor Road/Stovell Ave (Opp House 219)",53.45222,-2.19067
1800EB10541,managadm,"Crowcroft Park, Stovell Avenue/Longden Road (Nr House 91)",53.45006,-2.19012
1800EB10551,managadp,"Crowcroft Park, Matthews Lane/Maida Street (Nr House 38)",53.44929,-2.18870
1800EB10561,managadt,"Crowcroft Park, Matthews Lane/Maida Street (Nr House 1)",53.44929,-2.18790
1800EB10571,managadw,"Crowcroft Park, Matthews Lane/Hornbeam Road (Open Land)",53.44977,-2.18416
1800EB10581,managaga,"Crowcroft Park, Matthews Lane/Hornbeam Rd (Opp Playing Fld)",53.44961,-2.18462
1800EB10591,managagd,"Crowcroft Park, Matthews Lane/Mount Road (Opp House 64)",53.45019,-2.18098
1800EB10601,managagj,"Crowcroft Park, Matthews Lane/Leybourne Avenue (Opp School)",53.45004,-2.18122
1800EB10611,managagm,"Fairfield (Droylsden), Ashton Old Road/Rosina Street (Os Pub)",53.47277,-2.15384
1800EB10641,managagp,"Charlestown (Manchester), Hall Moss Road/The Clough (Op Clough Hotel)",53.52721,-2.19523
1800EB10651,managagt,"Charlestown (Manchester), Colmore Drive/Mossfield Road (Nr Open Land)",53.52923,-2.19524
1800EB10661,managagw,"Charlestown (Manchester), Colmore Drive/Mossfield Road (Openland)",53.52927,-2.19569
1800EB10671,managaja,"Charlestown (Manchester), Hall Moss Road/The Clough (Os Pub)",53.52743,-2.19553
1800EB10681,managajd,"Charlestown (Manchester), Grangepark Road/Charlestown Road (Os Hse 3)",53.52431,-2.19965
1800EB10691,managajg,"Charlestown (Manchester), Grangepark Road/Charlestown Road (Opp House 7)",53.52436,-2.19940
1800EB10701,managajm,"North Reddish (Stockport), Reddish Lane/Aspinal Church (Os Church)",53.45581,-2.15917
1800EB11061,managajp,"Harpurhey, Moston Lane/Asda  (Stop C)",53.51357,-2.21067
1800EB11081,mantdwgt,"Moston (Manchester), Moston Lane/Moston Cemetery (Nr Cemetery)",53.51700,-2.18834
1800EB11091,managajt,"Charlestown (Manchester), Grangepark Road/Grange Drive (Opp House 41)",53.52529,-2.19747
1800EB11181,managajw,"West Gorton, Hyde Road/Pottery Lane (Nr Garage)",53.46547,-2.19746
1800EB11281,managamg,"Fairfield (Droylsden), Ashton Old Road/Fairfield Avenue (Opp Petrol Stn)",53.47253,-2.15177
1800EB11291,managamj,"Fallowfield (Manchester), Yew Tree Road/Whitebrook Road (Os Hse 23)",53.44175,-2.23162
1800EB11361,managamp,"Fallowfield (Manchester), Yew Tree Road/Wilbraham Road (O/s House 154)",53.44426,-2.23186
1800EB11371,managamt,"Moston (Manchester), Greengate/Gardener's Arms  (Stop B)",53.52645,-2.17606
1800EB11381,managamw,"Moston (Manchester), Greengate/Gardener's Arms  (Stop A)",53.52662,-2.17633
1800EB11571,managapa,"Blackley (Manchester), White Moss Road/Haverfield Road (O/s House 3)",53.52760,-2.20729
1800EB11581,managapd,"Blackley (Manchester), White Moss Road/Haverfield Road (Shops)",53.52744,-2.20765
1800EB11591,managapg,"Higher Blackley, White Moss Road/Benmore Road (Os Hse 105)",53.52868,-2.20393
1800EB11601,managapj,"Higher Blackley, White Moss Road/Benmore Road (Os Hse 86)",53.52889,-2.20342
1800EB11611,managapm,"Blackley (Manchester), White Moss Road/Grasdene Avenue (Nr Social Club)",53.52681,-2.21027
1800EB11621,managapt,"Blackley (Manchester), White Moss Road/Grasdene Avenue (Os Build 256)",53.52670,-2.21028
1800EB11631,managapw,"Blackley (Manchester), White Moss Road/Housing Office (Opp Medical Ctr)",53.52636,-2.21178
1800EB11641,managata,"Blackley (Manchester), Charlestown Road/Rochdale Road (Os Hse 3)",53.52153,-2.21419
1800EB11651,managatd,"Blackley (Manchester), Charlestown Road/Rochdale Road (Opp House 9)",53.52160,-2.21341
1800EB11661,managatg,"Blackley (Manchester), Charlestown Road/Polefield Road (Op Field)",53.52245,-2.20847
1800EB11671,managatj,"Blackley (Manchester), Charlestown Road/Polefield Road (Opp 79)",53.52239,-2.20811
1800EB11681,managatm,"Blackley (Manchester), Charlestown Road/Booth Hall Hospital (Os Hospital)",53.52354,-2.20410
1800EB11691,managatp,"Blackley (Manchester), Charlestown Road/Booth Hall Hospital (Op Hospital)",53.52350,-2.20440
1800EB11701,managatw,"Charlestown (Manchester), Charlestown Rd/Grange Park Rd (Opp Park House)",53.52378,-2.20004
1800EB11711,managawa,"Charlestown (Manchester), Charlestown Road/Grange Park Road (Os Park)",53.52363,-2.20015
1800EB11721,managawd,"Charlestown (Manchester), Charlestown Road/Booth Hall Road (Os Church)",53.52356,-2.19577
1800EB11731,managawg,"Charlestown (Manchester), Charlestown Road/Booth Hall Road (Os Hse 126)",53.52356,-2.19721
1800EB11741,managawj,"Charlestown (Manchester), Charlestown Road/White Moss Shops (Os Hse 253)",53.52324,-2.19161
1800EB11751,managawm,"Charlestown (Manchester), Charlestown Road/White Moss Shops (Os Hse 174)",53.52327,-2.19348
1800EB11761,managawp,"Charlestown (Manchester), Charlestown Road/Elaine Avenue (O/s House 349)",53.52276,-2.18533
1800EB11771,managawt,"Charlestown (Manchester), Charlestown Road/The Charlestown (Op Hse 301)",53.52289,-2.18851
1800EB11781,managdad,"Charlestown (Manchester), Charlestown Road/Moston Lane (Nr Hse 393)",53.52261,-2.18339
1800EB11791,managdag,"Charlestown (Manchester), Charlestown Road/Moston Lane (Os Flats)",53.52255,-2.18408
1800EB11801,managdaj,"Moston (Manchester), Moston Lane/Leyburn Road (Os Hse 809)",53.52324,-2.18131
1800EB11811,managdam,"Moston (Manchester), Moston Lane/Leyburn Road (Os Hse 554)",53.52340,-2.18060
1800EB11841,managdap,"Moston (Manchester), Moston Lane/Gardener's Arms  (Stop E)",53.52498,-2.17718
1800EB11851,managdat,"Moston (Manchester), Moston Lane/Gardener's Arms  (Stop F)",53.52512,-2.17667
1800EB11861,managdaw,"Moston (Manchester), Moston Lane/Shawford Road (Os Hse 490)",53.52163,-2.18211
1800EB11881,managdga,"Dean Lane (Newton Heath), Dean Lane/Oldham Road  (Stop B)",53.50303,-2.18443
1800EB11891,managdgd,"Dean Lane (Newton Heath), Dean Lane/Rail Station  (Stop A)",53.50410,-2.18459
1800EB11901,managdgj,"Moston (Manchester), St Mary's Road/Alexian Brothers Centre (Op Hse 182)",53.51060,-2.18243
1800EB11911,managdgm,"Moston (Manchester), St Mary's Road/Williams Road (Op Garage)",53.50671,-2.18381
1800EB11921,managdgp,"Moston (Manchester), St Mary's Road/Dean Brook Inn (Nr Pub)",53.50810,-2.18325
1800EB11931,managdgt,"Moston (Manchester), St Mary's Road/Williams Road (Os Garage)",53.50686,-2.18394
1800EB11941,managdgw,"Moston (Manchester), St Mary's Rd/Alexian Brothers Ctre (Op Nursing Home)",53.50995,-2.18249
1800EB11951,managdja,"Moston (Manchester), St Mary's Road/Dean Brook Inn (Op Hse 2)",53.50883,-2.18316
1800EB11961,managdjd,"Moston (Manchester), St Mary's Road/Tymm Street (Os Hse 262)",53.51338,-2.18113
1800EB11971,managdjg,"Moston (Manchester), St Mary's Road/Tymm Street (Os Hse 271)",53.51353,-2.18127
1800EB11981,managdjm,"Moston (Manchester), Kenyon Lane/Lightbowne Church (Opp Oakland Care Ctr)",53.51020,-2.19354
1800EB11991,managdjp,"Moston (Manchester), Kenyon Lane/Deanway (Opp Flats)",53.51002,-2.19390
1800EB12001,managdjt,"Moston (Manchester), Kenyon Lane/Lily Lane (Opp School)",53.51111,-2.19603
1800EB12831,managdma,"Manchester City Centre, Piccadilly Rail Station (Nr Station)",53.47778,-2.23192
1800EB12901,managdmg,"Burnage, Burnage Lane/Farmers Arms (Opp Church)",53.43085,-2.20092
1800EB13541,mantjtja,"Manchester City Centre, Church St/The Unicorn Stop CB (Stop CB)",53.48290,-2.23733
1800EB13651,mantjtjw,"Piccadilly Gardens, Piccadilly/Portland St  (Stop R)",53.48096,-2.23564
1800EB13661,mantjtpj,"Charlestown (Manchester), Victoria Avenue East/Cartmel Court (Nr Flats)",53.52945,-2.19048
1800EB13701,mantmtaj,"Manchester City Centre, Fairfield St/Piccadilly Stn (Os Stn)",53.47631,-2.22879
1800EB13711,managdmj,"Parrs Wood, Kingsway/Parrs Wood Lane  (Stop D)",53.41130,-2.21922
1800EB13721,managdmp,"Parrs Wood, Kingsway/Parrs Wood Lane  (Stop C)",53.41164,-2.21862
1800EB13741,managdmt,"Burnage, Kingsway/School Lane (Opticians)",53.41454,-2.21689
1800EB13751,managdmw,"Burnage, Kingsway/School Lane (Nr House 500)",53.41539,-2.21684
1800EB13761,managdpa,"Burnage, Kingsway/Homestead Crescent (O/s House 438)",53.41814,-2.21512
1800EB13771,managdpd,"Burnage, Kingsway/Homestead Crescent (O/s House 617)",53.41748,-2.21515
1800EB13781,managdpg,"Burnage, Kingsway/Fog Lane  (Stop E)",53.42020,-2.21397
1800EB13791,managdpj,"Burnage, Kingsway/Fog Lane  (Stop F)",53.42054,-2.21330
1800EB13801,managdpm,"Burnage, Kingsway/Barcicroft Road (O/s House 314)",53.42346,-2.21235
1800EB13811,managdpt,"Burnage, Kingsway/Barcicroft Road (O/s House 407)",53.42355,-2.21191
1800EB13821,managdpw,"Burnage, Kingsway/Green End Road (Nr Hse 1)",53.42773,-2.21035
1800EB13831,managdta,"Burnage, Kingsway/Green End Road (Nr Hse 341)",53.42702,-2.21023
1800EB13851,managdtd,"Burnage, Kingsway/Briarfield Road (Os Hse 206)",53.42980,-2.20935
1800EB13861,managdtg,"Burnage, Kingsway/Briarfield Road (O/s House 317)",53.42924,-2.20922
1800EB13871,managdtj,"Burnage, Kingsway/Mauldeth Road  (Stop D)",53.43177,-2.20799
1800EB13881,managdtm,"Burnage, Kingsway/Mauldeth Road  (Stop C)",53.43308,-2.20785
1800EB13891,managdtp,"Ladybarn, Kingsway/Grangethorpe Drive (Opp House 143)",53.43739,-2.20646
1800EB13901,managdtw,"Ladybarn, Kingsway/Grangethorpe Drive (Os Shops)",53.43627,-2.20630
1800EB13921,managdwd,"Birchfields, Kingsway/Moseley Road  (Stop E)",53.44177,-2.20423
1800EB13931,managdwg,"Birchfields, Kingsway/Moseley Road  (Stop G)",53.44147,-2.20390
1800EB13961,mantmtdw,"Moston (Manchester), Victoria Avenue East/Northwold Drive (Op Flats)",53.52768,-2.18320
1800EB13971,mantmtgm,"Piccadilly Gardens, Newton St/Piccadilly (O/s Clothes Shop)",53.48089,-2.23415
1800EB13991,mantmtjm,"Gorton, Hyde Road/Tesco (Nr Supermarket)",53.46095,-2.17187
1800EB14181,mantmtmd,"Manchester City Centre, Aytoun St/Minshull St (O/s Car Park)",53.47804,-2.23405
1800EB14371,managdwj,"Harpurhey, Carisbrook Street/Fernclough Road (Os Nursery)",53.50888,-2.21553
1800EB14381,managdwm,"Harpurhey, Carisbrook Street/Fernclough Road (Os Flats)",53.50897,-2.21555
1800EB14411,managdwp,"Manchester City Centre, Piccadilly/Paton St Stop EQ (Stop Eq)",53.47987,-2.23332
1800EB14451,managdwt,"Newtown (Miles Platting), Thompson Street/Rochdale Road (Op Carpark)",53.48748,-2.23218
1800EB14461,mantmwtd,"Higher Openshaw, Abbey Hey Lane/Melville Close (Adj House 1)",53.47130,-2.16013
1800EB14551,managjad,"Beswick (Manchester), Palmerston Street/Councillor Street (Os School)",53.48100,-2.20906
1800EB14571,managjaj,"Beswick (Manchester), Albert Street/Rylance Street (Op Hse 11)",53.47993,-2.20519
1800EB14581,managjam,"Beswick (Manchester), Albert Street/Doric Close (Nr Elec Sub Stn)",53.47966,-2.20401
1800EB14591,managjap,"Beswick (Manchester), Albert Street/Sarah Street (Opp House 52)",53.47894,-2.19950
1800EB14601,managjat,"Beswick (Manchester), Albert Street/Sarah Street (Os Hse 54)",53.47881,-2.19912
1800EB14611,managjaw,"Clayton (Manchester), Clayton Lane/Eccleshall Street (Nr Church Inn)",53.48243,-2.18315
1800EB14621,managjda,"Openshaw, Clayton Lane/Greenside Street (Factory)",53.47924,-2.18540
1800EB14631,managjdg,"Openshaw, Greenside Street/Elrick Walk (O/s House 2)",53.47871,-2.18431
1800EB14641,managjdj,"Openshaw, Greenside Street/Tarland Walk (Nr Sub Station)",53.47849,-2.18198
1800EB14651,managjdm,"Openshaw, Greenside Street/Bob Massey Close (Nr House 1)",53.47855,-2.18142
1800EB14661,managjdp,"Openshaw, Greenside Street/Meech Street (Opp Park)",53.47595,-2.18114
1800EB14671,managjdt,"Openshaw, Greenside Street/Meech Street (Os Park)",53.47569,-2.18080
1800EB14681,managjdw,"Openshaw, Greenside Street/Parkhouse Street (Os Hse 9)",53.47424,-2.18123
1800EB14691,managjga,"Openshaw, Greenside Street/Ashton Old Road (Opp House 3)",53.47460,-2.18102
1800EB14761,mantpdja,"Ryder Brow, Levenshulme Road/Sacred Heart Church (Opp Playing Field)",53.45739,-2.17335
1800EB14841,mantpdpa,"Openshaw, Ashton Old Road/Lidl (Supermarket)",53.47283,-2.16603
1800EB17021,managjgd,"New Moston, Broadway/Nuthurst Road (Os House 461)",53.51650,-2.16891
1800EB17401,managjgj,"Ancoats, Great Ancoats Street/Ducie Street (Os Retail Park)",53.48096,-2.22531
1800EB17511,managjgm,"Moston (Manchester), Moston Lane/Ben Brierley (Op Hse 336)",53.51395,-2.19570
1800EB17521,managjgp,"Moston (Manchester), Moston Lane/Ben Brierley (Os Hse 346)",53.51382,-2.19537
1800EB17541,managjgt,"Moston (Manchester), Moston Lane/Leighton Street (Os Hse 404)",53.51438,-2.19258
1800EB17551,managjgw,"Moston (Manchester), Moston Lane/Blue Bell (Os Hse 461)",53.51473,-2.19235
1800EB17571,managjma,"Moston (Manchester), Moston Lane/Blue Bell (Os Cemetery)",53.51608,-2.19017
1800EB17581,managjmd,"Moston (Manchester), Moston Lane/Moston Cemetery (Os School)",53.51657,-2.18947
1800EB17591,managjmg,"Moston (Manchester), Moston Lane/Horncastle Road (Os Park)",53.51818,-2.18561
1800EB17601,managjmj,"Moston (Manchester), Moston Lane/Horncastle Road (Os Hse 623)",53.51844,-2.18555
1800EB17611,managjmp,"Moston (Manchester), Moston Lane/Broadhurst Fields (Opp House 709)",53.51927,-2.18284
1800EB17621,managjmt,"Moston (Manchester), Moston Lane/Broadhurst Fields (Os Hse 713)",53.51954,-2.18250
1800EB17631,managjmw,"Charlestown (Manchester), Moston Lane/Charlestown Road (Nr Frew House)",53.52235,-2.18265
1800EB17641,managjpa,"Moston (Manchester), Nuthurst Road/Enderby Road (Opp House 35)",53.51834,-2.17896
1800EB17651,managjpd,"New Moston, Nuthurst Road/Broadway (New Moston Lbry)",53.51675,-2.16823
1800EB17661,managjpg,"New Moston, Nuthurst Road/New Moston Library (Op Library)",53.51665,-2.16837
1800EB17671,managjpj,"New Moston, Nuthurst Road/Parkhurst Ave (Op Hse 208a)",53.51593,-2.16500
1800EB17681,managjpm,"New Moston, Nuthurst Road/Parkhurst Avenue (O/s House 214)",53.51562,-2.16431
1800EB17691,managjpt,"Longsight, Kirkmanshulme Lane/Stockport Road (OS House 16)",53.45930,-2.20209
1800EB17701,managjpw,"Longsight, Kirkmanshulme Lane/Asda (Os Hse 15)",53.45947,-2.20185
1800EB17711,managjta,"Belle Vue (Manchester), Kirkmanshulme Lane/Northmoor Road (Os Hse 138)",53.45990,-2.19440
1800EB17721,managjtd,"Belle Vue (Manchester), Kirkmanshulme Lane/Longsight Spt Club (Stop N)",53.46016,-2.19393
1800EB17731,managjtg,"Belle Vue (Manchester), Kirkmanshulme Lane/Pink Bank Lane (Op Leis Ctre)",53.46080,-2.19149
1800EB17741,managjtj,"Belle Vue (Manchester), Kirkmanshulme Lane/Pink Bank Lane (Os Leis Ctre)",53.46052,-2.19185
1800EB17751,managjtm,"Belle Vue (Manchester), Kirkmanshulme Lane/Belle Vue  (Stop D)",53.46231,-2.18370
1800EB17761,managjtp,"Belle Vue (Manchester), Kirkmanshulme Lane/Belle Vue  (Stop E)",53.46251,-2.18335
1800EB17771,managjtw,"Moston (Manchester), Hollinwood Avenue/Gardener's Arms  (Stop J)",53.52480,-2.17345
1800EB17791,managjwd,"Moston (Manchester), Hollinwood Ave/Moston Rail Station  (Stop L)",53.52396,-2.17062
1800EB17961,managjwg,"Beswick (Manchester), Ashton New Road/Asda  (Stop E)",53.48226,-2.19261
1800EB17971,managjwj,"Beswick (Manchester), Ashton New Rd/Quinn St  (Stop G)",53.48196,-2.19334
1800EB17981,managjwm,"Clayton (Manchester), Ashton New Road/Clayton Lane (Church Opp)",53.48294,-2.18225
1800EB18531,managjwp,"Longsight, Plymouth Grove/Grindlow St (Os School)",53.46134,-2.21224
1800EB18541,managjwt,"Beswick (Manchester), Ashton Old Road/Kay Street  (Stop A)",53.47433,-2.19811
1800EB18571,managmad,"Ryder Brow, Wembley Road/Melland School (Os Hse 115)",53.45193,-2.17412
1800EB19991,managmag,"New Moston, Moston Lane East/Broadway (Post Office)",53.52138,-2.16661
1800EB20281,managmam,"Moston (Manchester), Lightbowne Road/Gardener's Arms  (Stop H)",53.52474,-2.17600
1800EB20291,managmap,"Moston (Manchester), Lightbowne Road/Gardener's Arms  (Stop G)",53.52457,-2.17643
1800EB20301,managmat,"Moston (Manchester), Lightbowne Road/Leyburn Road (Os Hse 408)",53.52270,-2.17710
1800EB20311,managmaw,"Moston (Manchester), Lightbowne Road/Leyburn Road (Os Hse 409)",53.52265,-2.17765
1800EB20321,managmda,"Moston (Manchester), Lightbowne Road/Nuthurst Road (Os Hse 322)",53.51921,-2.17945
1800EB20331,managmdg,"Moston (Manchester), Lightbowne Road/Nuthurst Road (Os Num 319)",53.51929,-2.17969
1800EB20341,managmdj,"Moston (Manchester), Nuthurst Road/Moston Lane (Opp Park)",53.51954,-2.18153
1800EB20361,managmdm,"Moston (Manchester), Hollinwood Ave/Moston Rail Station  (Stop M)",53.52393,-2.17122
1800EB20411,managmdp,"Moston (Manchester), Victoria Avenue East/Greengate  (Stop D)",53.52568,-2.17738
1800EB20421,managmdt,"Moston (Manchester), Victoria Avenue East/Greengate  (Stop C)",53.52586,-2.17731
1800EB20431,managmdw,"Burnage, Mauldeth Road/Kingsway  (Stop F)",53.43224,-2.20627
1800EB20441,managmga,"Moston (Manchester), Victoria Avenue East/Northwold Drive (Os Flats)",53.52764,-2.18360
1800EB20451,managmgd,"Charlestown (Manchester), Victoria Avenue East/Moorway Drive (Op Open Ground)",53.52900,-2.18753
1800EB20461,managmgj,"Charlestown (Manchester), Victoria Avenue East/Moorway Drive (Os Flats)",53.52914,-2.18880
1800EB20471,managmgm,"Higher Blackley, Newcliffe Road/Amesbury Road (Os Hse 16)",53.53022,-2.20211
1800EB20481,managmgp,"Higher Blackley, Newcliffe Road/Amesbury Road (Paper Shop)",53.52983,-2.20209
1800EB20501,managmgt,"Charlestown (Manchester), Victoria Avenue East/Cartmel Court (Op Hse 203)",53.53004,-2.19485
1800EB22011,managmgw,"Moston (Manchester), Kenyon Lane/Lily Lane (Os School)",53.51118,-2.19630
1800EB22021,managmja,"Moston (Manchester), Kenyon Lane/Ben Brierley (Os Pub)",53.51369,-2.19657
1800ED02251,manajwaw,"Mills Hill, Middleton Road/Gainsborough Road (Os Hse 1054)",53.55075,-2.16561
1800ED02271,manajwdg,"Mills Hill, Oldham Rd/Mills Hill Station  (Stop B)",53.55166,-2.17049
1800ED02281,manajwdj,"Chadderton Park, Haigh Lane/Kenilworth Avenue (Opp House 60)",53.55208,-2.16370
1800ED02291,manajwdm,"Chadderton Park, Haigh Lane/Kenilworth Avenue (O/s House 48)",53.55192,-2.16440
1800ED02301,manajwdp,"Chadderton Park, Chadderton Hall Road/Bowling Green (Os Bowling Green)",53.55301,-2.15961
1800ED02311,manajwdt,"Chadderton Park, Chadderton Hall Road/Bowling Green (Opp Bowling Grn)",53.55276,-2.15998
1800ED02321,manajwdw,"Chadderton Park, Chadderton Hall Rd/Chadderton Hall Pk (Nr Park Lodge)",53.55478,-2.15546
1800ED02331,manajwga,"Chadderton Park, Chadderton Hall Rd/Chadderton Hall Pk (Os Hse 95)",53.55492,-2.15483
1800ED02341,manajwgd,"Chadderton, Chadderton Hall Rd/North Chadderton Sc (Os Sch)",53.55630,-2.15183
1800ED02351,manajwgj,"Chadderton, Chadderton Hall Road/Junior School (Os Church)",53.55654,-2.15165
1800ED02361,manajwgm,"Royton, Middleton Road/High Street  (Stop D)",53.56508,-2.12266
1800ED02371,manajwgp,"Royton, Middleton Road/High Street  (Stop C)",53.56516,-2.12277
1800ED02381,manajwgt,"Royton, Middleton Road/Chapel Lane (Nr Public House)",53.56465,-2.12544
1800ED02391,manajwgw,"Royton, Middleton Road/Church Inn (Opp Church Inn)",53.56435,-2.12603
1800ED02401,manajwja,"Royton, Middleton Road/Throstle Court (Throstle Court)",53.56403,-2.12775
1800ED02411,manajwjd,"Royton, Middleton Road/Holden Fold Lane (Os Garage)",53.56369,-2.12879
1800ED02421,manajwjg,"Royton, Middleton Road/Highlands Road (Opp House 190)",53.56327,-2.13178
1800ED02431,manajwjm,"Royton, Middleton Road/Lea View (Os Hse 306)",53.56267,-2.13448
1800ED02441,manajwjp,"Royley, Middleton Road/Stottfield (Opp House 2)",53.56301,-2.13711
1800ED02451,manajwjt,"Royley, Middleton Road/Stottfield (O/s House 372)",53.56284,-2.13780
1800ED02461,manajwjw,"Street Bridge, Streetbridge Road/Bridleway (Nr Garage)",53.56132,-2.14323
1800ED02471,manajwma,"Street Bridge, Streetbridge Road/Bridleway (Nr Hse 24)",53.56114,-2.14335
1800ED02481,manajwmd,"Street Bridge, Streetbridge Road/A627M (Op Public House)",53.56001,-2.14528
1800ED02491,manajwmg,"Street Bridge, Streetbridge Road/A627M (Op Hse 278)",53.56040,-2.14486
1800ED02501,manajwmj,"Buckley Wood, Streetbridge Road/Irk Bridge (Op Car Park)",53.55875,-2.14879
1800ED02571,manajwmp,"Failsworth (Oldham), Lord Lane/Day Drive (Os Hse 92)",53.50399,-2.15692
1800ED02681,manajwmt,"Glodwick, Roundthorn Road/Gladstone Street (Os Shop)",53.53804,-2.09343
1800ED02691,manajwmw,"Denshaw, Delph Road/Summer Hill Clough (Opp Ed1244)",53.58407,-2.03925
1800ED02701,manajwpa,"Chadderton, Middleton Road/Chadderton Precinct  (Stop A)",53.54519,-2.14212
1800ED02951,manajwpd,"Hathershaw, Ashton Road/Lee Street (Op Warehouse)",53.53291,-2.11497
1800ED03061,manajwpm,"Busk (Chadderton), Garforth Street/Bamford Street (Shop)",53.55084,-2.13242
1800ED03081,manajwpt,"Greenacres, Greenacres Road/Windermere Walk (O/s Flats)",53.54526,-2.08408
1800ED03091,manajwpw,"Roxbury, Roundthorn Road/Brewerton Road (Os Hse 154)",53.53613,-2.09046
1800ED03101,manajwta,"Roxbury, Roundthorn Road/Brewerton Road (Op Takeaway)",53.53637,-2.09088
1800ED03521,manajwtp,"Greenacres, Huddersfield Road/Hill Stores  (Stop A)",53.54679,-2.09080
1800EB33981,manajdap,"Openshaw, Ashton Old Road/Greenside Street (Nr Pub)",53.47358,-2.18189
1800EB33991,manajdat,"Openshaw, Ashton Old Road/Greenside Street (Op Rectory)",53.47333,-2.18058
1800EB34001,manajdaw,"Openshaw, Ashton Old Road/Westlake Street (Nr Tyre Centre)",53.47334,-2.17769
1800EB34011,manajdga,"Openshaw, Ashton Old Road/Victoria Street (Opp Aldi)",53.47310,-2.17565
1800EB34021,manajdgd,"Openshaw, Ashton Old Road/Victoria Street (Os Superstore)",53.47325,-2.17510
1800EB34031,manajdgj,"Openshaw, Ashton Old Road/Louisa Street (Op Pub)",53.47295,-2.17159
1800EB34041,manajdgm,"Openshaw, Ashton Old Road/Lees Street (Opp Supermarket)",53.47304,-2.16888
1800EB34051,manajdgp,"Openshaw, Ashton Old Road/Lees Street (Nr Supermarket)",53.47288,-2.16824
1800EB34061,manajdgt,"Higher Openshaw, Ashton Old Rd/Old Hall St (Os House 1239)",53.47296,-2.16601
1800EB34071,manajdgw,"Higher Openshaw, Fairfield Rd/Ashton Old Rd Stop B (Stop B)",53.47320,-2.16329
1800EB34081,manajdja,"Higher Openshaw, Fairfield Rd/Ashton Old Rd Stop A (Stop A)",53.47343,-2.16333
1800EB34101,manajdjd,"Fairfield (Droylsden), Edge Lane/Yew Tree (Op Yew Tree Ph)",53.47640,-2.16253
1800EB34171,manajdjg,"Ardwick, Downing Street/Grosvenor Street (Os Hostel)",53.47223,-2.22842
1800EB34191,manajdjm,"Ardwick, Ardwick Green South/Ardwick Green (Os Park)",53.47184,-2.22643
1800EB34201,manajdjp,"Ardwick, Ardwick Green South/Ardwick Green (Os School)",53.47125,-2.22503
1800EB34221,manajdjt,"Ardwick, Hyde Road/Apollo (Op Autogas Sys)",53.46984,-2.22074
1800EB34231,manajdjw,"Ardwick, Hyde Road/Apollo (Op House 29)",53.46979,-2.22107
1800EB34241,manajdma,"Ardwick, Hyde Road/Devonshire Street (Opp School)",53.46904,-2.21718
1800EB34251,manajdmd,"Ardwick, Hyde Road/Devonshire Street (Os Bus Depot)",53.46856,-2.21367
1800EB34271,manajdmj,"Ardwick, Hyde Road/Stagecoach Depot (Op Bus Depot)",53.46846,-2.21396
1800EB34291,manajdmt,"Ardwick, Hyde Road/Bennett Street (Opp Wellington)",53.46791,-2.21081
1800EB34301,manajdmw,"Ardwick, Hyde Road/Bennett Street (Nr Car Wash)",53.46795,-2.21031
1800EB34311,manajdpa,"West Gorton, Hyde Road/Clowes Street (Nr Tyre Centre)",53.46713,-2.20646
1800EB34321,manajdpd,"West Gorton, Hyde Road/Clowes Street (Opp Boc Cars)",53.46669,-2.20324
1800EB34331,manajdpg,"West Gorton, Hyde Road/Redgate Lane (Nr Railway Depot)",53.46599,-2.20019
1800EB34341,manajdpj,"West Gorton, Hyde Road/Pottery Lane (Opp Hartwells)",53.46572,-2.19733
1800EB34351,manajdpm,"West Gorton, Hyde Road/Birch Street (Opp Nags Head)",53.46479,-2.19371
1800EB34361,manajdpt,"West Gorton, Hyde Road/Boundary Street (Nr Nags Head)",53.46476,-2.19273
1800EB34371,manajdpw,"Belle Vue (Manchester), Hyde Road/Belle Vue Street (Nr Cinema)",53.46397,-2.18961
1800EB34381,manajdta,"Belle Vue (Manchester), Hyde Road/Belle Vue Street (Opp Cinema)",53.46413,-2.18926
1800EB34441,manajdtw,"Beswick (Manchester), Pottery Lane/Ashton Old Road  (Stop E)",53.47364,-2.19420
1800EB34451,manajdwa,"Ashburys, Pottery Lane/Ashburys Station (Stop A)",53.47157,-2.19439
1800EB34461,manajdwd,"Ashburys, Pottery Lane/Gorton Road  (Stop B)",53.47069,-2.19395
1800EB34471,manajdwg,"West Gorton, Gorton Lane/Gardner Street (Opp House 41)",53.46872,-2.19081
1800EB34481,manajdwj,"West Gorton, Gorton Lane/Gardner Street (Os house 57)",53.46854,-2.18919
1800EB34491,manajdwm,"West Gorton, Gorton Lane/Gorton Monastery (Os Monastery)",53.46811,-2.18722
1800EB34501,manajdwp,"West Gorton, Gorton Lane/Old Monastery (Op Monastery)",53.46785,-2.18643
1800EB34511,manajdwt,"Gorton, Gorton Lane/Preston Street (Opp Tavern)",53.46750,-2.18175
1800EB34521,manajgad,"Gorton, Gorton Lane/Preston Street (Op Nursing Home)",53.46756,-2.18116
1800EB34531,manajgag,"Gorton, Gorton Lane/Peacock Close (Os Peacock Ctr)",53.46658,-2.17707
1800EB34541,manajgaj,"Gorton, Gorton Lane/Peacock Close (Op Peacock Ctr)",53.46695,-2.17855
1800EB34551,manajgam,"Gorton, Gorton Lane/Borwell Street (Os Gardners Arms)",53.46545,-2.17400
1800EB34561,manajgap,"Gorton, Gorton Lane/Borwell Street (Opp House 550)",53.46548,-2.17370
1800EB34571,manajgat,"Gorton, Wellington St/Gorton Post Office (Opp Post Office)",53.46333,-2.17161
1800EB34581,manajgaw,"Gorton, Wellington St/Gorton Post Office (Post Office)",53.46333,-2.17138
1800EB34591,manajgda,"Gorton, Cross Lane/Gorton Labour Club (Nr Club)",53.46304,-2.17103
1800EB34601,manajgdg,"Gorton, Chapman Street/Carberry Road (Nr Shops)",53.46428,-2.16941
1800EB34611,manajgdj,"Gorton, Chapman Street/Pinnington Road (Os Shop)",53.46589,-2.17002
1800EB34621,manajgdm,"Gorton, Chapman Street/Pinnington Road (Os Sub Station)",53.46614,-2.17034
1800EB34631,manajgdp,"Gorton, Chapman Road/Reed Street (Os Flats)",53.46782,-2.17098
1800EB34641,manajgdt,"Gorton, Chapman Street/Reed Street (Opp No 281)",53.46806,-2.17092
1800EB34651,manajgdw,"Gorton, Ogden Lane/Cornwall Street (Nr Open Land)",53.47060,-2.17161
